[{"id": "rec00JYAbLHvQFwog", "fields": {"placeLookup": "shittim_1086", "openBibleLat": "31.85826218", "openBibleLong": "35.64156653", "kjvName": "Shittim", "esvName": "Shittim", "rootID": ["recgfOCqzEYY932wA"], "placeID": 1086, "verses": ["recHKOioeRUvNCUH1", "recdNOwMro7Mop5m8", "recVIh7E9GB6tFUSG", "recX5ipidfPKHTubI"], "recogitoStatus": "UNVERIFIED", "recogitoUID": "00258bb2-57b4-4df5-8391-20b5025b2ea7", "status": "wip", "displayTitle": "Shittim", "verseCount": 4, "latitude": "31.85826218", "longitude": "35.64156653", "alphaGroup": "S", "slug": "shittim_1086"}, "createdTime": "2017-09-19T23:40:41.000Z"}, {"id": "rec01lUK0ZRXUnohv", "fields": {"placeLookup": "eth-kazin_420", "openBibleLat": "32.781808", "openBibleLong": "35.321364", "kjvName": "Eth-kazin", "esvName": "Eth-kazin", "precision": "Rough", "rootID": ["recdj20FESzKensp3"], "placeID": 420, "verses": ["recojHLsCXLbs621x"], "recogitoStatus": "UNVERIFIED", "recogitoUID": "49051461-f937-47ed-abe9-ac2f039526de", "status": "wip", "displayTitle": "Eth-kazin", "verseCount": 1, "latitude": "32.781808", "longitude": "35.321364", "alphaGroup": "E", "slug": "eth-kazin_420"}, "createdTime": "2017-09-19T23:40:41.000Z"}, {"id": "rec042fw3n8gCnFul", "fields": {"placeLookup": "rimmon_1003", "openBibleLat": "31.93466", "openBibleLong": "35.297063", "kjvName": "Rimmon", "esvName": "Rimmon", "placeID": 1003, "recogitoUri": "http://sws.geonames.org/282234", "recogitoLat": "31.93342", "recogitoLon": "35.29821", "verses": ["recnEyXCVT5ME6fCO", "rechvvE0WKBjv4jE7", "rec5IAGlvDupfi3NZ"], "recogitoStatus": "UNVERIFIED", "recogitoLabel": "Ramm\u016bn", "recogitoUID": "2e5fa4f0-0d0c-4e09-b972-1e7caad16ba1", "status": "wip", "displayTitle": "Rimmon", "ambiguous name": true, "Easton's": ["rec0Uh5BQQouhsq1p"], "verseCount": 3, "latitude": "31.93466", "longitude": "35.297063", "alphaGroup": "R", "slug": "rimmon_1003"}, "createdTime": "2017-09-19T23:40:41.000Z"}, {"id": "rec06r9EJW86Wzac7", "fields": {"placeLookup": "rissah_1008", "openBibleLat": "30.317396", "openBibleLong": "35.407152", "kjvName": "Rissah", "esvName": "Rissah", "precision": "Rough", "rootID": ["recn5ad7qKvkUdCyZ"], "placeID": 1008, "verses": ["recmPlAwmYCtPO0uN", "recJYkTrGoygzeohO"], "recogitoStatus": "UNVERIFIED", "recogitoUID": "07b63abd-df16-4a8d-9afa-1fc0b9aec663", "hasBeenHere": ["recjNRR60PAuFtjha"], "status": "wip", "displayTitle": "Rissah", "Easton's": ["recYGZjvprgH8Dh6c"], "verseCount": 2, "latitude": "30.317396", "longitude": "35.407152", "alphaGroup": "R", "slug": "rissah_1008"}, "createdTime": "2017-09-19T23:40:41.000Z"}, {"id": "rec07iNOHOCD9TtUq", "fields": {"placeLookup": "adadah_20", "openBibleLat": "31.1858", "openBibleLong": "34.96745", "kjvName": "Adadah", "esvName": "Adadah", "precision": "Rough", "placeID": 20, "verses": ["recfB5T6rvsxDB8nJ"], "recogitoStatus": "UNVERIFIED", "recogitoUID": "6f470e07-469f-4a68-8cdf-d6b4419ddd3c", "status": "wip", "displayTitle": "Adadah", "verseCount": 1, "latitude": "31.1858", "longitude": "34.96745", "alphaGroup": "A", "slug": "adadah_20"}, "createdTime": "2017-09-19T23:40:41.000Z"}, {"id": "rec0N0TWVYrSe7ur4", "fields": {"placeLookup": "humtah_588", "openBibleLat": "31.53577362133176", "openBibleLong": "35.09409986578734", "kjvName": "Humtah", "esvName": "Humtah", "precision": "Rough", "rootID": ["recJSfVnIcPibY6aX"], "placeID": 588, "verses": ["recbGauE4F42tFqan"], "recogitoStatus": "UNVERIFIED", "recogitoUID": "6dd809f9-da03-4cc3-ac87-2846f334187f", "status": "wip", "displayTitle": "Humtah", "verseCount": 1, "latitude": "31.53577362133176", "longitude": "35.09409986578734", "alphaGroup": "H", "slug": "humtah_588"}, "createdTime": "2017-09-19T23:40:41.000Z"}, {"id": "rec0Q2LXE0NTbQoVG", "fields": {"placeLookup": "rogelim_1012", "openBibleLat": "32.214708?", "openBibleLong": "35.632914?", "kjvName": "Rogelim", "esvName": "Rogelim", "precision": "Rough", "rootID": ["recIY9mUBLApR33cG"], "placeID": 1012, "verses": ["recyKdOHWZNYqZCwt", "rec3MFGkhkMiZmKah"], "recogitoStatus": "UNVERIFIED", "recogitoUID": "a0cc7bed-ee38-4f87-83ff-c817d9d5ef90", "status": "wip", "displayTitle": "Rogelim", "Easton's": ["recIwk2Zm0uOWXrcC"], "verseCount": 2, "latitude": "32.214708?", "longitude": "35.632914?", "alphaGroup": "R", "slug": "rogelim_1012"}, "createdTime": "2017-09-19T23:40:41.000Z"}, {"id": "rec0SjrDrVPzEPdRu", "fields": {"placeLookup": "zered_1253", "openBibleLat": "30.884128", "openBibleLong": "35.897633", "kjvName": "Zered", "esvName": "Zered", "comment": "river", "featureType": "Water", "placeID": 1253, "recogitoUri": "http://pleiades.stoa.org/places/697766", "recogitoLat": "30.75", "recogitoLon": "35.75", "verses": ["recsTK0FwWPswSAH6", "recBAyK0fXS1xihKW"], "recogitoStatus": "UNVERIFIED", "recogitoType": "river", "recogitoLabel": "Zered (river)", "recogitoUID": "662ef9a0-e4a5-4928-bb58-18889bedd45d", "status": "wip", "displayTitle": "Zered", "verseCount": 2, "latitude": "30.884128", "longitude": "35.897633", "alphaGroup": "Z", "slug": "zered_1253"}, "createdTime": "2017-09-19T23:40:41.000Z"}, {"id": "rec0YWbwVkA7RQKBw", "fields": {"placeLookup": "pisgah_950", "openBibleLat": "31.7650313", "openBibleLong": "35.71856576", "kjvName": "Pisgah", "esvName": "Pisgah", "placeID": 950, "recogitoUri": "http://sws.geonames.org/5247945", "recogitoLat": "43.74191", "recogitoLon": "-90.7793", "verses": ["recbQAr38ODmHHoGC", "recOek3yWnRlv6Gh8", "recSS7BgDNramQgLn", "recZbroxuwkmABbM4", "rec1mGV0kJpZtaAoc"], "recogitoStatus": "UNVERIFIED", "recogitoLabel": "Cashton", "recogitoUID": "ff99a857-3958-4656-bd58-fd17bcf609e6", "hasBeenHere": ["recjNRR60PAuFtjha"], "status": "wip", "displayTitle": "Pisgah", "Easton's": ["recfsR9xnjBJjD6Cw"], "verseCount": 5, "latitude": "31.7650313", "longitude": "35.71856576", "alphaGroup": "P", "slug": "pisgah_950"}, "createdTime": "2017-09-19T23:40:41.000Z"}, {"id": "rec0clRmthQIjvUHR", "fields": {"placeLookup": "horesh_578", "openBibleLat": "31.45113921", "openBibleLong": "35.08840337", "kjvName": "Horesh", "esvName": "Horesh", "placeID": 578, "verses": ["recEFOsT0Ip46RpBh", "recpEaaahnxKDZiJY", "recxyGjBghZPVqcex", "recrv15un6kINdyOa"], "recogitoStatus": "UNVERIFIED", "recogitoUID": "ec14f027-a6ab-4d63-8ebd-7ef774ee07b0", "status": "wip", "displayTitle": "Horesh", "verseCount": 4, "latitude": "31.45113921", "longitude": "35.08840337", "alphaGroup": "H", "slug": "horesh_578"}, "createdTime": "2017-09-19T23:40:41.000Z"}, {"id": "rec0esIVZ4dWgesPy", "fields": {"placeLookup": "eneglaim_386", "openBibleLat": "30.998062", "openBibleLong": "35.498547", "kjvName": "Eneglaim", "esvName": "Eneglaim", "precision": "Rough", "placeID": 386, "verses": ["recsA2sz5uGKW4TiE"], "recogitoStatus": "UNVERIFIED", "recogitoUID": "c408a57e-dd6d-4acc-b0be-8d83d3ef0055", "status": "wip", "displayTitle": "Eneglaim", "verseCount": 1, "latitude": "30.998062", "longitude": "35.498547", "alphaGroup": "E", "slug": "eneglaim_386"}, "createdTime": "2017-09-19T23:40:41.000Z"}, {"id": "rec0jxSkEigFIdFqj", "fields": {"placeLookup": "millo_802", "openBibleLat": "31.777444", "openBibleLong": "35.234935", "kjvName": "Millo", "esvName": "Millo", "precision": "Related-Within", "rootID": ["recL1WV82pXaRBQ59"], "placeID": 802, "verses": ["recCDR52QUoXOuEsr", "recFMQaqec3w2s0rf", "rec0YoIOoKKdlHSTE", "recXHevIId2ptL2mL", "recjRmhjvLyeHVRoU", "reclzgCabyP7rJCvk"], "recogitoStatus": "NOT_IDENTIFIABLE", "recogitoUID": "92efa138-32cb-48f1-bd53-8dde52bbd997", "status": "wip", "displayTitle": "Millo", "Easton's": ["recWAkwnuCGSb1fzG"], "verseCount": 6, "latitude": "31.777444", "longitude": "35.234935", "alphaGroup": "M", "slug": "millo_802"}, "createdTime": "2017-09-19T23:40:41.000Z"}, {"id": "rec0wrua442IGGgtN", "fields": {"placeLookup": "me-jarkon_778", "openBibleLat": "32.132898", "openBibleLong": "34.788144", "kjvName": "Me-jarkon", "esvName": "Me-jarkon", "precision": "Rough", "rootID": ["recFlw9QjiTit8Kdt"], "placeID": 778, "verses": ["rec9rW7UhzIPyDCPn"], "recogitoStatus": "UNVERIFIED", "recogitoUID": "4383f0d4-5d3e-4d0f-afa4-6637e5edcb29", "status": "wip", "displayTitle": "Me-jarkon", "verseCount": 1, "latitude": "32.132898", "longitude": "34.788144", "alphaGroup": "M", "slug": "me-jarkon_778"}, "createdTime": "2017-09-19T23:40:41.000Z"}, {"id": "rec10f1iLnaGNWjbY", "fields": {"placeLookup": "ramah_973", "openBibleLat": "33.111078", "openBibleLong": "35.310464", "kjvName": "Ramah", "esvName": "Ramah 2", "placeID": 973, "verses": ["recXMErzLKUOjCd5m"], "recogitoStatus": "UNVERIFIED", "recogitoUID": "c8c0aa81-625d-45a8-b964-18571f3e973e", "status": "wip", "displayTitle": "Ramah", "ambiguous name": true, "Easton's": ["recPxW3W3qNcBlkZq"], "verseCount": 1, "latitude": "33.111078", "longitude": "35.310464", "alphaGroup": "R", "slug": "ramah_973"}, "createdTime": "2017-09-19T23:40:41.000Z"}, {"id": "rec14G9VSYQFR0PSV", "fields": {"placeLookup": "dalmanutha_320", "openBibleLat": "32.84733495", "openBibleLong": "35.52293618", "kjvName": "Dalmanutha", "esvName": "Dalmanutha", "rootID": ["rec8scqP30fz5SjGW"], "placeID": 320, "verses": ["rec1byxWNad9CWlyJ"], "recogitoStatus": "UNVERIFIED", "recogitoUID": "8d67c6ef-2731-44b0-b3e0-22b092d0c449", "status": "wip", "displayTitle": "Dalmanutha", "Easton's": ["reclkBpMyD0E2VpDz"], "verseCount": 1, "latitude": "32.84733495", "longitude": "35.52293618", "alphaGroup": "D", "slug": "dalmanutha_320"}, "createdTime": "2017-09-19T23:40:41.000Z"}, {"id": "rec17BV2zJmVUdbIV", "fields": {"placeLookup": "italy_601", "openBibleLat": "41.9", "openBibleLong": "12.48333333333333", "kjvName": "Italy", "esvName": "Italy", "comment": "region", "precision": "Related-Surrounding", "featureType": "Region", "rootID": ["recDDkVF36ecPUge4"], "dictionaryLink": "https://www.biblestudytools.com/dictionaries/eastons-bible-dictionary/italy.html", "dictionaryText": "  Acts 18:2  ;  Acts 27:1  Acts 27:6  ;  Hebrews 13:24  ), like most geographical names, was differently used at different periods of history. As the power of Rome advanced, nations were successively conquered and added to it till it came to designate the whole country to the south of the Alps. There was constant intercourse between Palestine and Italy in the time of the Romans.", "placeID": 601, "recogitoUri": "http://sws.geonames.org/3175395", "recogitoLat": "42.78740074008558", "recogitoLon": "12.0810743", "verses": ["recnz9p0tesYDwXyF", "recumAtzkC7XajiMh", "rec430soQfJz7F4UX", "recuWcI9hj2a9UFy6"], "recogitoStatus": "VERIFIED", "recogitoComments": "modern borders.\u00a0 may not show outlines on final map", "recogitoLabel": "Italy", "recogitoUID": "1c51c0f9-9f42-44c7-8e87-45f7c486f4c0", "eventsHere": ["rec8n5xw6VVMu81SV"], "hasBeenHere": ["recgkzNX07a7kGFYL", "recFAk8M3Dk8tn9Xo", "reclOIbdzOMEvWssM"], "status": "publish", "displayTitle": "Italy", "Easton's": ["rec5YQzhtiz2HL2EI"], "verseCount": 4, "latitude": "42.78740074008558", "longitude": "12.0810743", "alphaGroup": "I", "slug": "italy_601"}, "createdTime": "2017-09-19T23:40:41.000Z"}, {"id": "rec1AHST2tmCaaj2L", "fields": {"placeLookup": "rehoboth-ir_992", "openBibleLat": "36.35941", "openBibleLong": "43.152887", "kjvName": "Rehoboth-Ir", "esvName": "Rehoboth-Ir", "rootID": ["rec5WK4QGcKa48pA6"], "placeID": 992, "verses": ["recboBHjrxNTpj8D6"], "recogitoStatus": "UNVERIFIED", "recogitoUID": "3da421b2-0d9f-4c4d-a81c-b075baa9beab", "status": "wip", "displayTitle": "Rehoboth-Ir", "Easton's": ["recb75SIFOq5uivpn"], "verseCount": 1, "latitude": "36.35941", "longitude": "43.152887", "alphaGroup": "R", "slug": "rehoboth-ir_992"}, "createdTime": "2017-09-19T23:40:41.000Z"}, {"id": "rec1AuhYfD1Pt34oA", "fields": {"placeLookup": "habor_499", "openBibleLat": "36.344972", "openBibleLong": "40.789333", "kjvName": "Habor", "esvName": "Habor", "comment": "river", "featureType": "Water", "placeID": 499, "verses": ["rec9wae0V8hc1UgSe", "recxriI4Jto8v6n3x", "rechFEnkRHbhDcgWP"], "recogitoStatus": "UNVERIFIED", "recogitoUID": "65e9e472-c23c-4aed-a35d-a02188c362c9", "status": "wip", "displayTitle": "Habor", "Easton's": ["recEoF5MgC3re47wk"], "verseCount": 3, "latitude": "36.344972", "longitude": "40.789333", "alphaGroup": "H", "slug": "habor_499"}, "createdTime": "2017-09-19T23:40:41.000Z"}, {"id": "rec1ET3TBR0oBaWJu", "fields": {"placeLookup": "mount_hermon_841", "openBibleLat": "33.41615982", "openBibleLong": "35.85725618", "kjvName": "mount Hermon", "esvName": "Mount Hermon", "placeID": 841, "recogitoUri": "http://dare.ht.lu.se/places/41235", "recogitoLat": "33.416111", "recogitoLon": "35.8575", "verses": ["rec6rAixINf4SLSeA", "recA0nMfs8U2xTRqu", "recxE3meBDyGxiLqI", "recFTShT1fzWDRKiY", "rectC0sFIpOjZ8AIx", "recfiefGNCE3shG1o", "recExBuDbBh9248Px"], "recogitoStatus": "VERIFIED", "recogitoType": "mountain", "recogitoLabel": "Hermon M.|Hermon Mons, Jabal al-Shaykh", "recogitoUID": "b0d7c73d-0bce-469b-8c24-f93f09af7a1e", "status": "wip", "displayTitle": "mount Hermon", "verseCount": 7, "latitude": "33.416111", "longitude": "35.8575", "alphaGroup": "M", "slug": "mount_hermon_841"}, "createdTime": "2017-09-19T23:40:41.000Z"}, {"id": "rec1NgBQ2zMeIsFyT", "fields": {"placeLookup": "arnon_92", "openBibleLat": "31.4288", "openBibleLong": "35.677009", "kjvName": "Arnon", "esvName": "Arnon", "comment": "Now Wadi Mojib", "placeID": 92, "recogitoUri": "http://pleiades.stoa.org/places/697634", "recogitoLat": "31.25", "recogitoLon": "35.75", "verses": ["recCpw3pIDH5Lc0iG", "recQy4Hs14kmTvkav", "recuXRzjanCJW8Pl2", "rec80IISdtLdEf7wD", "recU3xQDKZcOwRn85", "rec0BM4Tf9VoWdS2P", "recWOw5dvUYINXHES", "recZIUI2qfRfGMqKU", "reccXBLAB405AAAIp", "rec80hhcwBxpkChBU", "recibdPgKUL1C8p2J", "rec2RCkAT40EZqtbm"], "recogitoStatus": "VERIFIED", "recogitoType": "river", "recogitoLabel": "Arnon (river)", "recogitoUID": "bbf1104d-752f-4473-8c62-36b1539d7dc9", "status": "wip", "displayTitle": "Arnon", "verseCount": 12, "latitude": "31.25", "longitude": "35.75", "alphaGroup": "A", "slug": "arnon_92"}, "createdTime": "2017-09-19T23:40:41.000Z"}, {"id": "rec1Pp0lTvXAzY48p", "fields": {"placeLookup": "beth-ashbea_190", "kjvName": "Beth-ashbea", "esvName": "Beth-ashbea", "precision": "Unlocated", "placeID": 190, "verses": ["recShV8TEDIGRUNGl"], "recogitoStatus": "UNVERIFIED", "recogitoUID": "dde6ecc6-ff9c-41e5-a8f9-443ca465925c", "status": "wip", "displayTitle": "Beth-ashbea", "verseCount": 1, "alphaGroup": "B", "slug": "beth-ashbea_190"}, "createdTime": "2017-09-19T23:40:41.000Z"}, {"id": "rec1QA8OE0IHg2OPf", "fields": {"placeLookup": "beer-lahai-roi_167", "openBibleLat": "30.68771281376111", "openBibleLong": "34.49479554246946", "kjvName": "Beer-lahai-roi", "esvName": "Beer-lahai-roi", "precision": "Rough", "rootID": ["recVfy9PlsXdODNGL"], "placeID": 167, "verses": ["recuGySRuKwjMvfa0", "recm7R7lvRF7ofNlt"], "recogitoStatus": "UNVERIFIED", "recogitoUID": "22e9e911-5bc9-4976-9099-b9dd0e543628", "status": "wip", "displayTitle": "Beer-lahai-roi", "verseCount": 2, "latitude": "30.68771281376111", "longitude": "34.49479554246946", "alphaGroup": "B", "slug": "beer-lahai-roi_167"}, "createdTime": "2017-09-19T23:40:41.000Z"}, {"id": "rec1RMZhQrrzq5oHJ", "fields": {"placeLookup": "nile_895", "openBibleLat": "30.092632", "openBibleLong": "31.230987", "kjvName": "Nile", "esvName": "Nile", "placeID": 895, "recogitoUri": "http://pleiades.stoa.org/places/727172", "recogitoLat": "19.211408766666665", "recogitoLon": "30.56732963", "verses": ["recvi5floLCygtJxP", "recWlI0L0H8NS9QQ8", "recDYR9QIm5ltKypo", "recASxDlipTds0Uhh", "recUWxPvhjgc8sOtE", "rec7IlukqqptYspFy", "recprYD1Z4NEmGq4v", "rec0DlESq52XAzhIq", "recwA4oxxkYfB6Lun", "recJnbrPNe7ZxT3mq", "recDRnzwPiMDMqlHS", "recOvT1xMP77MnOLp", "recxfxdd8U9saKcZv", "recU3X0JoZFXergI7", "recjTfEElx8oBfhaY", "recbHN2KUR1wIKzuY", "recEcZb6LswGjoc8e", "recqfI4ri1AsAaWcu", "recJQqRgo1hZwEdzk", "rechYpSCMkyARt4Tj", "reczTJXyyrkugH16c", "recoV54cIF74wF75b", "recY0U4h6aOwTbfql", "recJOZNu03oihECT0", "reclbq3jyVlnk70Vz", "recSPlWE7OmDdnDSR", "recAAqgcDUgEZBqyA", "recTNqDU0FasNishy", "recgOhcwZMN47vSPM", "rec7DyqGkokmo4qab"], "recogitoStatus": "VERIFIED", "recogitoType": "river", "recogitoLabel": "Nilus (river)", "recogitoUID": "d1411187-068d-4be4-993c-7dcf6dcb6385", "status": "wip", "displayTitle": "Nile", "verseCount": 30, "latitude": "19.211408766666665", "longitude": "30.56732963", "alphaGroup": "N", "slug": "nile_895"}, "createdTime": "2017-09-19T23:40:41.000Z"}, {"id": "rec1TAitFuG2xVnbt", "fields": {"placeLookup": "persia_938", "openBibleLat": "34.798311", "openBibleLong": "48.514966", "kjvName": "Persia", "esvName": "Persia", "precision": "Related-Surrounding", "rootID": ["recU6Ze8zYV8DqXew"], "placeID": 938, "verses": ["reczuOjZPwieSF27O", "rec0nbeoubGvyP9gr", "rec8SV59rgLeSd2BK", "recwGyFev3S5m2Cvp", "recZu1YVPWvuR6zpH", "recDdF10oxHqrWkU0", "recfOrqvleTRjG0aD", "recyXYxSkRZFQBsXN", "recT0WQEj6j7po4vn", "recahDMH5X6nD5WaI", "recOdtH6rHbNLKj4F", "recGDeyNwQEXB9HkD", "rec7zlWAShCLd3xBe", "recRKxVfO3eG5ZkMj", "recqtEFA6JMF7SGxp", "recFVPRa9sjIyZNC9", "recfPTEVocsdxv7fp", "recgqF5GZqlca8xZh", "recJ4W0G82BxUP3XQ", "recuuPEC3ieKG6sLp", "reco4diOYr6UPBLpN", "recLOjgc15McDUK4k", "recJErSmbeAjNbgEH", "recbgcdFxqjbn7ky6", "rectfwjVkTJsLN7Xy"], "recogitoStatus": "NOT_IDENTIFIABLE", "recogitoComments": "Region, not defined here as a place.", "recogitoUID": "3a179e87-88ba-4324-bfad-6577baa1be12", "status": "wip", "displayTitle": "Persia", "verseCount": 25, "latitude": "34.798311", "longitude": "48.514966", "alphaGroup": "P", "slug": "persia_938"}, "createdTime": "2017-09-19T23:40:41.000Z"}, {"id": "rec1TOi8sIOGfx3kH", "fields": {"placeLookup": "egypts_363", "openBibleLat": "30.108086", "openBibleLong": "31.338220", "kjvName": "Egypt's", "esvName": "Egypt's", "precision": "Related-Surrounding", "rootID": ["recK0feE032FY9Hxi"], "placeID": 363, "recogitoUri": "http://pleiades.stoa.org/places/750429666", "recogitoLat": "25.501066", "recogitoLon": "29.333603", "recogitoStatus": "UNVERIFIED", "recogitoType": "settlement", "recogitoLabel": "Tineida|Tineida, in Egypt's Dakhleh", "recogitoUID": "882017ae-5231-408d-b73b-e365669a9f80", "status": "wip", "displayTitle": "Egypt's", "duplicate_of": ["recfrXyxhuYOczKTm"], "Easton's": ["recaI03cdUrqCbVQE"], "verseCount": 0, "latitude": "30.108086", "longitude": "31.338220", "alphaGroup": "E", "slug": "egypts_363"}, "createdTime": "2017-09-19T23:40:41.000Z"}, {"id": "rec1TiGubP08v5qaM", "fields": {"placeLookup": "abel-meholah_8", "openBibleLat": "32.35601", "openBibleLong": "35.536929", "kjvName": "Abel-meholah", "esvName": "Abel-meholah", "placeID": 8, "verses": ["recxJYtpIEFnuBrBF", "recxGR1Z6QoRST7u1", "recqTfhkjw69vNloH"], "recogitoStatus": "UNVERIFIED", "recogitoUID": "8c8823b2-a7e9-4d22-a9c4-3bf83a2a1ba0", "status": "wip", "displayTitle": "Abel-meholah", "Easton's": ["recIvr4zkNe2HVXGj"], "verseCount": 3, "latitude": "32.35601", "longitude": "35.536929", "alphaGroup": "A", "slug": "abel-meholah_8"}, "createdTime": "2017-09-19T23:40:41.000Z"}, {"id": "rec1cz9Ftp0zE3jJK", "fields": {"placeLookup": "valley_of_zephathah_1223", "openBibleLat": "31.615198", "openBibleLong": "34.910085", "kjvName": "valley of Zephathah", "esvName": "Valley of Zephathah", "placeID": 1223, "verses": ["recXYI1SIpeycNItO"], "recogitoStatus": "UNVERIFIED", "recogitoUID": "ca80a390-2558-4ccc-bfd2-5a7347048164", "status": "wip", "displayTitle": "valley of Zephathah", "verseCount": 1, "latitude": "31.615198", "longitude": "34.910085", "alphaGroup": "V", "slug": "valley_of_zephathah_1223"}, "createdTime": "2017-09-19T23:40:41.000Z"}, {"id": "rec1f8fCk9jva56Vx", "fields": {"placeLookup": "nodab_903", "openBibleLat": "32.80007552505443", "openBibleLong": "35.93730130476259", "kjvName": "Nodab", "esvName": "Nodab", "precision": "Related-Surrounding", "rootID": ["recRpIvrxowDc7mVt"], "placeID": 903, "verses": ["recY0hzS2RI1igTno"], "recogitoStatus": "UNVERIFIED", "recogitoUID": "15537ceb-76d5-43d9-acf8-eaf941bfb0ea", "status": "wip", "displayTitle": "Nodab", "Easton's": ["recNhf2X4UXVJaeKw"], "verseCount": 1, "latitude": "32.80007552505443", "longitude": "35.93730130476259", "alphaGroup": "N", "slug": "nodab_903"}, "createdTime": "2017-09-19T23:40:41.000Z"}, {"id": "rec1fhlBExIdvMXW9", "fields": {"placeLookup": "shema_1071", "openBibleLat": "31.162327", "openBibleLong": "35.057114", "kjvName": "Shema", "esvName": "Shema", "precision": "Rough", "rootID": ["recNebppBEBJdV4YY"], "placeID": 1071, "recogitoUri": "http://pleiades.stoa.org/places/687864", "recogitoLat": "31.255001", "recogitoLon": "34.542818", "verses": ["rec2vDyeCfk8MLrL9"], "recogitoStatus": "UNVERIFIED", "recogitoType": "fort", "recogitoLabel": "Birsama|Birsama, Horvat Beer Shema", "recogitoUID": "cec31fc8-d039-4fe9-a86a-583e06d641cb", "status": "wip", "displayTitle": "Shema", "Easton's": ["reccRVJhrfq0gnDhm"], "verseCount": 1, "latitude": "31.162327", "longitude": "35.057114", "alphaGroup": "S", "slug": "shema_1071"}, "createdTime": "2017-09-19T23:40:41.000Z"}, {"id": "rec1irrySVGkYieCr", "fields": {"placeLookup": "meribah_782", "openBibleLat": "30.68771281376111", "openBibleLong": "34.49479554246946", "kjvName": "Meribah", "esvName": "Meribah", "precision": "Rough", "rootID": ["recVfy9PlsXdODNGL"], "placeID": 782, "verses": ["recIgD9bReLVGpWg3", "recdmOirsMJM5cN8P", "recjgVvtjazJwhPNi", "recQUSN56u6A0ZZH2", "recNh5iNJ4o5WUb8z"], "recogitoStatus": "UNVERIFIED", "recogitoUID": "6d3c981c-19b8-4670-b592-0cc808df3957", "status": "wip", "displayTitle": "Meribah", "ambiguous name": true, "verseCount": 5, "latitude": "30.68771281376111", "longitude": "34.49479554246946", "alphaGroup": "M", "slug": "meribah_782"}, "createdTime": "2017-09-19T23:40:41.000Z"}, {"id": "rec1k45DfZFLO3HfC", "fields": {"placeLookup": "jogbehah_645", "openBibleLat": "32.028743", "openBibleLong": "35.862887", "kjvName": "Jogbehah", "esvName": "Jogbehah", "placeID": 645, "verses": ["recOWJ3VNgC1Ycb4R", "recvSty1LYCPnTthW"], "recogitoStatus": "UNVERIFIED", "recogitoUID": "3c133f17-5ad4-4fe6-89dd-d3353af946ed", "status": "wip", "displayTitle": "Jogbehah", "verseCount": 2, "latitude": "32.028743", "longitude": "35.862887", "alphaGroup": "J", "slug": "jogbehah_645"}, "createdTime": "2017-09-19T23:40:41.000Z"}, {"id": "rec1krwAWclcQ8EeG", "fields": {"placeLookup": "ramah_974", "openBibleLat": "32.93901", "openBibleLong": "35.368123", "kjvName": "Ramah", "esvName": "Ramah", "placeID": 974, "verses": ["recS2zUy0KhMQKg19"], "recogitoStatus": "UNVERIFIED", "recogitoUID": "2e41e559-902c-47ef-9334-ba3d0bbafc31", "status": "wip", "displayTitle": "Ramah", "ambiguous name": true, "Easton's": ["recDv8MHCR0lNdJxM"], "verseCount": 1, "latitude": "32.93901", "longitude": "35.368123", "alphaGroup": "R", "slug": "ramah_974"}, "createdTime": "2017-09-19T23:40:41.000Z"}, {"id": "rec1tleh7fR8tsqKa", "fields": {"placeLookup": "esek_409", "openBibleLat": "31.39129109635703", "openBibleLong": "34.56057015639144", "kjvName": "Esek", "esvName": "Esek", "precision": "Rough", "rootID": ["recNwG4bBkZyEhAT4"], "placeID": 409, "verses": ["recc61hwAMSLHLmpu"], "recogitoStatus": "UNVERIFIED", "recogitoUID": "8bc2a59c-e0f7-4369-a417-3b7ad6b76100", "status": "wip", "displayTitle": "Esek", "Easton's": ["recfeQjiEKGsH2zqH"], "verseCount": 1, "latitude": "31.39129109635703", "longitude": "34.56057015639144", "alphaGroup": "E", "slug": "esek_409"}, "createdTime": "2017-09-19T23:40:41.000Z"}, {"id": "rec2006YHGi4zadxa", "fields": {"placeLookup": "merathaim_781", "openBibleLat": "32.53650369", "openBibleLong": "44.42088287", "kjvName": "Merathaim", "esvName": "Merathaim", "rootID": ["recO7At5WvGRe0Xsu"], "placeID": 781, "verses": ["recQBAFXB1j0nZUB3"], "recogitoStatus": "UNVERIFIED", "recogitoUID": "fff15fb0-2515-4a34-80ae-1e11e94cb5df", "status": "wip", "displayTitle": "Merathaim", "Easton's": ["recxkZFJOdSes1eOP"], "verseCount": 1, "latitude": "32.53650369", "longitude": "44.42088287", "alphaGroup": "M", "slug": "merathaim_781"}, "createdTime": "2017-09-19T23:40:41.000Z"}, {"id": "rec232gzESK5PLtd0", "fields": {"placeLookup": "beautiful_gate_163", "openBibleLat": "31.777444", "openBibleLong": "35.234935", "kjvName": "Beautiful gate", "esvName": "Beautiful Gate", "precision": "Related-Within", "featureType": "Landmark", "rootID": ["recL1WV82pXaRBQ59"], "dictionaryLink": "https://www.biblestudytools.com/dictionaries/eastons-bible-dictionary/beautiful-gate.html", "dictionaryText": " the name of one of the gates of the temple ( Acts 3:2  ). It is supposed to have been the door which led from the court of the Gentiles to the court of the women. It was of massive structure, and covered with plates of Corinthian brass.", "placeID": 163, "verses": ["recR0mPIKoCFgJK8O", "recfdVh3ftmIzYvJf"], "recogitoStatus": "NOT_IDENTIFIABLE", "recogitoComments": "landmark at the temple", "recogitoUID": "8032cb63-8c9b-420a-b09d-6641e5a66fe6", "eventsHere": ["recULlurLeelPiv2e"], "hasBeenHere": ["recX9MMADoVI2CSP1", "recvAB7vkczUEFH8Z"], "status": "publish", "displayTitle": "Beautiful gate", "Easton's": ["recSsTMtcQXDG9m5j"], "verseCount": 2, "latitude": "31.777444", "longitude": "35.234935", "alphaGroup": "B", "slug": "beautiful_gate_163"}, "createdTime": "2017-09-19T23:40:41.000Z"}, {"id": "rec25eNzSTmosC7xU", "fields": {"placeLookup": "zair_1236", "openBibleLat": "30.92652253", "openBibleLong": "35.41906069", "kjvName": "Zair", "esvName": "Zair", "rootID": ["reciwuMXIVWYdwnZw"], "placeID": 1236, "verses": ["recmPklyWSloP786O"], "recogitoStatus": "UNVERIFIED", "recogitoUID": "7d5cb884-693d-428d-96d5-b6c6846d8807", "status": "wip", "displayTitle": "Zair", "Easton's": ["reczQtSgz613cN1iO"], "verseCount": 1, "latitude": "30.92652253", "longitude": "35.41906069", "alphaGroup": "Z", "slug": "zair_1236"}, "createdTime": "2017-09-19T23:40:41.000Z"}, {"id": "rec25x8YYslhfvr4G", "fields": {"placeLookup": "gurbaal_498", "openBibleLat": "30.734691", "openBibleLong": "35.606250", "kjvName": "Gurbaal", "esvName": "Gurbaal", "precision": "Rough", "rootID": ["recIfdlpmLYrfPeAv"], "placeID": 498, "verses": ["recvx2YZD9dsOE5Qa"], "recogitoStatus": "UNVERIFIED", "recogitoUID": "bd16da04-9481-4e6d-8f18-2dc16d896a98", "status": "wip", "displayTitle": "Gurbaal", "Easton's": ["recj5k1ZG7Cy80BuX"], "verseCount": 1, "latitude": "30.734691", "longitude": "35.606250", "alphaGroup": "G", "slug": "gurbaal_498"}, "createdTime": "2017-09-19T23:40:41.000Z"}, {"id": "rec2CA3fcreugXc2x", "fields": {"placeLookup": "ir-shemesh_600", "openBibleLat": "31.75274836", "openBibleLong": "34.97660913", "kjvName": "Ir-shemesh", "esvName": "Ir-shemesh", "rootID": ["recocNih6Mr5ISN1d"], "placeID": 600, "verses": ["recSCmebZca172Q2Q"], "recogitoStatus": "UNVERIFIED", "recogitoUID": "3ea4f6ef-468c-4cda-a8ec-2854a6182aa2", "status": "wip", "displayTitle": "Ir-shemesh", "verseCount": 1, "latitude": "31.75274836", "longitude": "34.97660913", "alphaGroup": "I", "slug": "ir-shemesh_600"}, "createdTime": "2017-09-19T23:40:41.000Z"}, {"id": "rec2DUs59mulDknVW", "fields": {"placeLookup": "maarath_745", "openBibleLat": "31.621003", "openBibleLong": "35.102328", "kjvName": "Maarath", "esvName": "Maarath", "comment": "now Bayt Ummar", "placeID": 745, "verses": ["recLhfEs1TrgqFX1h"], "recogitoStatus": "UNVERIFIED", "recogitoUID": "a2d3c2f7-d58c-4dba-95fc-66334fa21c29", "status": "wip", "displayTitle": "Maarath", "Easton's": ["rec4t0avMhjUEkmlj"], "verseCount": 1, "latitude": "31.621003", "longitude": "35.102328", "alphaGroup": "M", "slug": "maarath_745"}, "createdTime": "2017-09-19T23:40:41.000Z"}, {"id": "rec2FVo1ApaaObSl8", "fields": {"placeLookup": "neiel_887", "openBibleLat": "32.894254", "openBibleLong": "35.221877", "kjvName": "Neiel", "esvName": "Neiel", "comment": "; now Yenin", "placeID": 887, "verses": ["rec0oIvjCjh1iKIpg"], "recogitoStatus": "UNVERIFIED", "recogitoUID": "5c89bbad-d58c-4fc3-8f56-2c36033b1b9a", "status": "wip", "displayTitle": "Neiel", "Easton's": ["recj0z7ZqrpjMuv2N"], "verseCount": 1, "latitude": "32.894254", "longitude": "35.221877", "alphaGroup": "N", "slug": "neiel_887"}, "createdTime": "2017-09-19T23:40:41.000Z"}, {"id": "rec2H0XhjHGTh1ivm", "fields": {"placeLookup": "eltekeh_378", "openBibleLat": "31.869521", "openBibleLong": "35.06688", "kjvName": "Eltekeh", "esvName": "Eltekeh", "placeID": 378, "verses": ["recjNJze3cQiNE30e"], "recogitoStatus": "UNVERIFIED", "recogitoUID": "05a22630-6e8c-4f38-b7f3-3f19c77e6dab", "status": "wip", "displayTitle": "Eltekeh", "verseCount": 1, "latitude": "31.869521", "longitude": "35.06688", "alphaGroup": "E", "slug": "eltekeh_378"}, "createdTime": "2017-09-19T23:40:41.000Z"}, {"id": "rec2PCmwHsVx97kxs", "fields": {"placeLookup": "hakkephirim_507", "openBibleLat": "32.02222222", "openBibleLong": "34.86666667", "kjvName": "Hakkephirim", "esvName": "Hakkephirim", "rootID": ["recCnbP6ZTjAmPCnR"], "placeID": 507, "verses": ["reccoBalnj2mSzT2A"], "recogitoStatus": "UNVERIFIED", "recogitoUID": "4f587971-733e-46c0-a675-ceb26e27f6aa", "status": "wip", "displayTitle": "Hakkephirim", "verseCount": 1, "latitude": "32.02222222", "longitude": "34.86666667", "alphaGroup": "H", "slug": "hakkephirim_507"}, "createdTime": "2017-09-19T23:40:41.000Z"}, {"id": "rec2QcD6jrQCxSGp2", "fields": {"placeLookup": "accad_14", "openBibleLat": "33.09201654", "openBibleLong": "44.12924815", "kjvName": "Accad", "esvName": "Accad", "placeID": 14, "verses": ["recoycFHWDbrThT2A"], "recogitoStatus": "UNVERIFIED", "recogitoUID": "6aa30252-b8b6-47e4-8e02-d2e3a8d182c6", "status": "wip", "displayTitle": "Accad", "Easton's": ["recDBHcGUdHuJIXyw"], "verseCount": 1, "latitude": "33.09201654", "longitude": "44.12924815", "alphaGroup": "A", "slug": "accad_14"}, "createdTime": "2017-09-19T23:40:41.000Z"}, {"id": "rec2RzCd7Fs9wI07g", "fields": {"placeLookup": "laodicea_716", "openBibleLat": "37.76986724", "openBibleLong": "29.0645011", "kjvName": "Laodicea", "esvName": "Laodicea", "placeID": 716, "recogitoUri": "http://dare.ht.lu.se/places/21162", "recogitoLat": "37.83692", "recogitoLon": "29.10786", "verses": ["recYvzuKofvVKI2Mb", "recgKS4p5NNwHQKnA", "recUwBDTROiTFuzDX", "recYKHuu3IzLozoID", "recao1zRqiJ6dsvsE", "recbZWHLMpSJhKRYK"], "recogitoStatus": "VERIFIED", "recogitoType": "theatre,settlement", "recogitoLabel": "Laodicea ad Lycum/Diospolis/Roas|Laodicea ad Lycum/Diospolis/Roas, Eskihisar, Denizli", "recogitoUID": "db021451-16ea-421b-ad27-c2285ff38075", "status": "wip", "displayTitle": "Laodicea", "Easton's": ["rec4mX2CYW58DT1V2", "reccgwWhbObRooHIX"], "verseCount": 6, "latitude": "37.83692", "longitude": "29.10786", "alphaGroup": "L", "slug": "laodicea_716"}, "createdTime": "2017-09-19T23:40:41.000Z"}, {"id": "rec2XOUoZFY6AaNQ4", "fields": {"placeLookup": "tigris_1163", "openBibleLat": "35.983343", "openBibleLong": "43.346466", "kjvName": "Tigris", "esvName": "Tigris", "placeID": 1163, "recogitoUri": "http://pleiades.stoa.org/places/874545", "recogitoLat": "37.8488001", "recogitoLon": "41.97437877", "verses": ["recYba5kmylUAIo5a"], "recogitoStatus": "UNVERIFIED", "recogitoType": "settlement,river", "recogitoLabel": "Kentrites/Tigris/Zirmas", "recogitoUID": "91faad7a-5e04-468d-ae30-9218fdceb938", "status": "wip", "displayTitle": "Tigris", "verseCount": 1, "latitude": "35.983343", "longitude": "43.346466", "alphaGroup": "T", "slug": "tigris_1163"}, "createdTime": "2017-09-19T23:40:41.000Z"}, {"id": "rec2YQAU1yrPgME5r", "fields": {"placeLookup": "kamon_665", "openBibleLat": "32.042523", "openBibleLong": "35.724241", "kjvName": "Kamon", "esvName": "Kamon", "precision": "Related-Surrounding", "rootID": ["recPoImnA7S93jcHx"], "placeID": 665, "verses": ["recR9XWjmdNEk9gN1"], "recogitoStatus": "UNVERIFIED", "recogitoUID": "ff907ee9-77c1-4294-802e-8c008e5a9a1b", "status": "wip", "displayTitle": "Kamon", "Easton's": ["recFtsAyAXRY37H2P"], "verseCount": 1, "latitude": "32.042523", "longitude": "35.724241", "alphaGroup": "K", "slug": "kamon_665"}, "createdTime": "2017-09-19T23:40:41.000Z"}, {"id": "rec2YUNAEJFFfYOXk", "fields": {"placeLookup": "mount_ebal_832", "openBibleLat": "32.23293814", "openBibleLong": "35.2730418", "kjvName": "mount Ebal", "esvName": "Mount Ebal", "placeID": 832, "verses": ["recc0J2GdaqZ7b5ak", "recGrD0AHZe0CJFPI", "recKdtVFmXb0UwV1I", "recYGbx8j2KPCsmHg", "recHuCaeTqpOnb9c5"], "recogitoStatus": "UNVERIFIED", "recogitoComments": "Same as Mount Zalmon, Ebal, Zalmon", "recogitoUID": "d150132b-0899-47bf-9b4e-bfdc15409107", "status": "wip", "displayTitle": "mount Ebal", "Easton's": ["rec5zPsZWT3CH4262"], "verseCount": 5, "latitude": "32.23293814", "longitude": "35.2730418", "alphaGroup": "M", "slug": "mount_ebal_832"}, "createdTime": "2017-09-19T23:40:41.000Z"}, {"id": "rec2cgUKcZA0YwC7u", "fields": {"placeLookup": "karka_668", "openBibleLat": "30.958506", "openBibleLong": "34.380500", "kjvName": "Karka", "esvName": "Karka", "precision": "Rough", "rootID": ["recWjPbc94D45lkIZ"], "placeID": 668, "recogitoUri": "http://pleiades.stoa.org/places/270330", "verses": ["recxX7bnbcMw3Y0MQ"], "recogitoStatus": "UNVERIFIED", "recogitoType": "unlocated", "recogitoLabel": "Karka", "recogitoUID": "093c47c7-c46d-4fb7-a0fe-e3ae961d8a42", "status": "wip", "displayTitle": "Karka", "verseCount": 1, "latitude": "30.958506", "longitude": "34.380500", "alphaGroup": "K", "slug": "karka_668"}, "createdTime": "2017-09-19T23:40:41.000Z"}, {"id": "rec2dzY5q746RtWtv", "fields": {"placeLookup": "beten_183", "openBibleLat": "32.934736", "openBibleLong": "35.270799", "kjvName": "Beten", "esvName": "Beten", "placeID": 183, "recogitoUri": "http://sws.geonames.org/294661", "recogitoLat": "32.7615", "recogitoLon": "35.11402", "verses": ["recPeODtSfXoznjtF"], "recogitoStatus": "UNVERIFIED", "recogitoLabel": "Ib\u1e6d\u012bn", "recogitoUID": "849fcfb7-2e16-4238-b042-6bc52b5b8cc7", "status": "wip", "displayTitle": "Beten", "verseCount": 1, "latitude": "32.934736", "longitude": "35.270799", "alphaGroup": "B", "slug": "beten_183"}, "createdTime": "2017-09-19T23:40:41.000Z"}, {"id": "rec2ngjsU0Y8MN6Nx", "fields": {"placeLookup": "bileam_248", "openBibleLat": "32.45", "openBibleLong": "35.2833", "kjvName": "Bileam", "esvName": "Bileam", "rootID": ["rec91Z7a1D7vQHOgk"], "placeID": 248, "verses": ["recQEEt6LigGkJsB6"], "recogitoStatus": "UNVERIFIED", "recogitoUID": "fde6bc50-8b1e-4d46-8270-65fd5dc5fe25", "status": "wip", "displayTitle": "Bileam", "verseCount": 1, "latitude": "32.45", "longitude": "35.2833", "alphaGroup": "B", "slug": "bileam_248"}, "createdTime": "2017-09-19T23:40:41.000Z"}, {"id": "rec31Re0o2h9DhFS2", "fields": {"placeLookup": "makheloth_759", "openBibleLat": "30.317396", "openBibleLong": "35.407152", "kjvName": "Makheloth", "esvName": "Makheloth", "precision": "Rough", "rootID": ["recn5ad7qKvkUdCyZ"], "placeID": 759, "verses": ["rec3mad94CTMbfLrJ", "rec0tQ5QjOAspuCGw"], "recogitoStatus": "UNVERIFIED", "recogitoUID": "43aba65d-ca36-42f9-83b6-f088336f14d6", "status": "wip", "displayTitle": "Makheloth", "Easton's": ["recnAyzCu29esEf4J"], "verseCount": 2, "latitude": "30.317396", "longitude": "35.407152", "alphaGroup": "M", "slug": "makheloth_759"}, "createdTime": "2017-09-19T23:40:41.000Z"}, {"id": "rec31pLZApXuca8pm", "fields": {"placeLookup": "rock_1011", "openBibleLat": "31.41666666666668", "openBibleLong": "35.1166666666667", "kjvName": "Rock", "esvName": "Rock of Escape", "precision": "Rough", "rootID": ["recE7gMJ0r4eJWepx"], "placeID": 1011, "recogitoUri": "http://sws.geonames.org/4841628", "recogitoLat": "41.86676", "recogitoLon": "-72.44953", "verses": ["recWHufu8KmB1g9Wp", "reccm3nvLh990JkrU", "rec4Q3qlktAcqcXI8", "rec5nhAkRht1Hd9Ms"], "recogitoStatus": "UNVERIFIED", "recogitoLabel": "Rockville", "recogitoUID": "4c367099-315a-4622-9dad-4ed4f6fe2bad", "status": "wip", "displayTitle": "Rock", "verseCount": 4, "latitude": "31.41666666666668", "longitude": "35.1166666666667", "alphaGroup": "R", "slug": "rock_1011"}, "createdTime": "2017-09-19T23:40:41.000Z"}, {"id": "rec33RNDKwJDs9pBL", "fields": {"placeLookup": "zedad_1246", "openBibleLat": "34.312571", "openBibleLong": "36.925484", "kjvName": "Zedad", "esvName": "Zedad", "placeID": 1246, "verses": ["recStf3ZZSSqugUaV", "recwA2fY6D7gfqQf9"], "recogitoStatus": "UNVERIFIED", "recogitoUID": "2828aff9-eb47-4162-86ad-ee01edc417ad", "status": "wip", "displayTitle": "Zedad", "Easton's": ["recOHQ9eWNUly3RVy"], "verseCount": 2, "latitude": "34.312571", "longitude": "36.925484", "alphaGroup": "Z", "slug": "zedad_1246"}, "createdTime": "2017-09-19T23:40:41.000Z"}, {"id": "rec34nlC2Rt0dlYyu", "fields": {"placeLookup": "gomorrah_489", "openBibleLat": "31.15724867", "openBibleLong": "35.47395433", "kjvName": "Gomorrah", "esvName": "Gomorrah", "placeID": 489, "verses": ["rec0uqY3XTa0M5Ff0", "recHAmZOJ6b38T6Rm", "rec7RkrLPXWFs28jI", "recwv5FwAJZZOd3Xx", "recPXNgiOejuXRNb9", "rec7jyzhXKdGQlaVQ", "recoIr91nS06uKtnz", "recmLen2aoTaPOglY", "recfg6du6Hqlsk3zE", "recJVc6fmL96GEl8n", "reckKWlW7nE2WItF5", "recmobvzQLytiI7CL", "recDGbRjHVHBCam0h", "recJdix17gZD5nPx3", "recwUrYSrX4kd3a4K", "recdGfoXV72IDWtoM", "reczSyQKHIsDMjr1s", "recO4XdzJ0QRa0isK", "recOF5aNL7X9rgXhe", "reccp3xxe79F30s0z", "rec6Xxo8nzXOHrF9q", "recp7GQglb4gMTXjz", "recZZDSe1uPYpEzQR"], "recogitoStatus": "NOT_IDENTIFIABLE", "recogitoUID": "ef30eefb-4427-48f9-9f8c-5d57046213a5", "status": "wip", "displayTitle": "Gomorrah", "verseCount": 23, "latitude": "31.15724867", "longitude": "35.47395433", "alphaGroup": "G", "slug": "gomorrah_489"}, "createdTime": "2017-09-19T23:40:41.000Z"}, {"id": "rec39FxmiUeVmCNUZ", "fields": {"placeLookup": "libya_730", "openBibleLat": "32.824979", "openBibleLong": "21.858301", "kjvName": "Libya", "esvName": "Libya", "precision": "Related-Surrounding", "featureType": "Region", "rootID": ["recZNlnoE1DDb6iiz"], "dictionaryLink": "https://www.biblestudytools.com/dictionaries/eastons-bible-dictionary/libya.html", "dictionaryText": " the country of the Ludim ( Genesis 10:13  ), Northern Africa, a large tract lying along the Mediterranean, to the west of Egypt ( Acts 2:10  ). Cyrene was one of its five cities.", "placeID": 730, "recogitoUri": "http://pleiades.stoa.org/places/991375", "recogitoLat": "28.91884175132798", "recogitoLon": "26.5", "verses": ["recKXQCXz6WoKr8wL", "rec1BhEIrTwocze5l"], "recogitoStatus": "VERIFIED", "recogitoType": "province", "recogitoLabel": "Libya Superior", "recogitoUID": "af99a92b-dba7-4ace-9604-0756c602c3ae", "status": "publish", "displayTitle": "Libya", "Easton's": ["rec7qDsrxPF2T07HF"], "verseCount": 2, "latitude": "28.91884175132798", "longitude": "26.5", "alphaGroup": "L", "slug": "libya_730"}, "createdTime": "2017-09-19T23:40:41.000Z"}, {"id": "rec3AkQ2GFvTqPxCx", "fields": {"placeLookup": "ethiopia_419", "openBibleLat": "21.959788", "openBibleLong": "31.343557", "kjvName": "Ethiopia", "esvName": "Ethiopia", "comment": "region", "precision": "Related-Surrounding", "featureType": "Region", "placeID": 419, "recogitoUri": "http://sws.geonames.org/337996", "recogitoLat": "8.620916482687358", "recogitoLon": "39.63485693", "verses": ["reclgVXEpUAXnveNt", "recFOnFF23RwiyXne", "rec6zGKmsJFd5LFdu"], "recogitoStatus": "UNVERIFIED", "recogitoLabel": "Ethiopia", "recogitoUID": "f6a41a3b-0d8f-4adb-8707-24d81696dc90", "status": "wip", "displayTitle": "Ethiopia", "verseCount": 3, "latitude": "21.959788", "longitude": "31.343557", "alphaGroup": "E", "slug": "ethiopia_419"}, "createdTime": "2017-09-19T23:40:41.000Z"}, {"id": "rec3EyLFEs77mZoka", "fields": {"placeLookup": "tabbath_1126", "openBibleLat": "32.356010", "openBibleLong": "35.536929", "kjvName": "Tabbath", "esvName": "Tabbath", "precision": "Rough", "rootID": ["rec1TiGubP08v5qaM"], "placeID": 1126, "verses": ["recxJYtpIEFnuBrBF"], "recogitoStatus": "UNVERIFIED", "recogitoUID": "feea994c-122b-4269-98a5-e45a09068ba5", "status": "wip", "displayTitle": "Tabbath", "Easton's": ["recanTsWneem4l1Dh"], "verseCount": 1, "latitude": "32.356010", "longitude": "35.536929", "alphaGroup": "T", "slug": "tabbath_1126"}, "createdTime": "2017-09-19T23:40:41.000Z"}, {"id": "rec3HDjmH4pPdYm8X", "fields": {"placeLookup": "migdal-el_797", "openBibleLat": "33.232131", "openBibleLong": "35.362942", "kjvName": "Migdal-el", "esvName": "Migdal-el", "placeID": 797, "recogitoUri": "http://sws.geonames.org/295620", "recogitoLat": "31.66926", "recogitoLon": "34.57149", "verses": ["recZ5Q2m5Oybuq3dX"], "recogitoStatus": "UNVERIFIED", "recogitoLabel": "Ashqelon", "recogitoUID": "766784f9-3606-4fb4-858e-31922bbf979e", "status": "wip", "displayTitle": "Migdal-el", "verseCount": 1, "latitude": "33.232131", "longitude": "35.362942", "alphaGroup": "M", "slug": "migdal-el_797"}, "createdTime": "2017-09-19T23:40:41.000Z"}, {"id": "rec3JgMop7qtLBNCH", "fields": {"placeLookup": "dothan_342", "openBibleLat": "32.42064338", "openBibleLong": "35.1801983", "kjvName": "Dothan", "esvName": "Dothan", "placeID": 342, "recogitoUri": "http://sws.geonames.org/4059102", "recogitoLat": "31.22323", "recogitoLon": "-85.39049", "verses": ["reclyH4qXm2XmNYqd", "recLoehlH7CGrd9YQ"], "recogitoStatus": "UNVERIFIED", "recogitoLabel": "Dothan", "recogitoUID": "14ccbe65-a69d-421c-89aa-de09d8045a2a", "status": "wip", "displayTitle": "Dothan", "Easton's": ["recDPHLuAxx3NYiRy"], "verseCount": 2, "latitude": "32.42064338", "longitude": "35.1801983", "alphaGroup": "D", "slug": "dothan_342"}, "createdTime": "2017-09-19T23:40:41.000Z"}, {"id": "rec3L50DGaMt6lBb2", "fields": {"placeLookup": "hahiroth_506", "openBibleLat": "29.94658?", "openBibleLong": "32.425144?", "kjvName": "Hahiroth", "esvName": "Hahiroth", "comment": "from tyndale", "rootID": ["recoDAncgjwP9jZVE"], "placeID": 506, "verses": ["recGHM75JDRzcP1Fc"], "recogitoStatus": "UNVERIFIED", "recogitoUID": "44a5139f-e8ad-4b74-89a5-3ff2efe91e42", "status": "wip", "displayTitle": "Hahiroth", "verseCount": 1, "latitude": "29.94658?", "longitude": "32.425144?", "alphaGroup": "H", "slug": "hahiroth_506"}, "createdTime": "2017-09-19T23:40:41.000Z"}, {"id": "rec3M96xTBxHixX5Z", "fields": {"placeLookup": "nicopolis_894", "openBibleLat": "39.024033", "openBibleLong": "20.73573", "kjvName": "Nicopolis", "esvName": "Nicopolis", "placeID": 894, "recogitoUri": "http://pleiades.stoa.org/places/658547", "recogitoLat": "37.027158", "recogitoLon": "36.633389", "verses": ["recZ514yAer4I95rJ"], "recogitoStatus": "UNVERIFIED", "recogitoType": "settlement", "recogitoLabel": "Nicopolis|Nicopolis, \u0130slahiye", "recogitoUID": "22ebb6c7-4d0a-4199-b41d-558edf205e15", "status": "wip", "displayTitle": "Nicopolis", "Easton's": ["recS8L0B9ELtKgITR"], "verseCount": 1, "latitude": "39.024033", "longitude": "20.73573", "alphaGroup": "N", "slug": "nicopolis_894"}, "createdTime": "2017-09-19T23:40:41.000Z"}, {"id": "rec3RF6Fb7wZUoamW", "fields": {"placeLookup": "azekah_128", "openBibleLat": "31.70063856", "openBibleLong": "34.9361859", "kjvName": "Azekah", "esvName": "Azekah", "placeID": 128, "verses": ["recwlSuBzdS1avdMO", "recGLILeOImFMb6WI", "recSrBbiIk9qTMujZ", "recpUFtPJpeGDPQiO", "reciytaoowmTVsh8k", "recvXO7FzZSNA0h8q", "recKFaAZl6E1CmIyp"], "recogitoStatus": "NOT_IDENTIFIABLE", "recogitoUID": "e22f326c-0372-4b83-88da-408b2709546f", "status": "wip", "displayTitle": "Azekah", "Easton's": ["rec2fzGbByp4WeJge"], "verseCount": 7, "latitude": "31.70063856", "longitude": "34.9361859", "alphaGroup": "A", "slug": "azekah_128"}, "createdTime": "2017-09-19T23:40:41.000Z"}, {"id": "rec3SLjiyY0ddRB03", "fields": {"placeLookup": "lord_303", "openBibleLat": "31.777444", "openBibleLong": "35.234935", "kjvName": "Lord", "esvName": "City of the Lord", "rootID": ["recL1WV82pXaRBQ59"], "placeID": 303, "recogitoUri": "http://sws.geonames.org/125609", "recogitoLat": "31.51338", "recogitoLon": "50.82672", "verses": ["recisE28EE6ug6FF8", "rec7zmyRiiy4e9vgH"], "recogitoStatus": "UNVERIFIED", "recogitoLabel": "Lordeg\u0101n", "recogitoUID": "ac6c22ba-b817-473a-9c8a-50049dea8c88", "status": "wip", "displayTitle": "Lord", "verseCount": 2, "latitude": "31.777444", "longitude": "35.234935", "alphaGroup": "L", "slug": "lord_303"}, "createdTime": "2017-09-19T23:40:41.000Z"}, {"id": "rec3WJ6kka7RKAwZm", "fields": {"placeLookup": "giloh_479", "openBibleLat": "31.616667", "openBibleLong": "35.083333", "kjvName": "Giloh", "esvName": "Giloh", "placeID": 479, "verses": ["recGidCIy5WLsgPGo", "receDmfyXYoJT1f2L"], "recogitoStatus": "UNVERIFIED", "recogitoUID": "ad39c5b4-1d83-44a1-98f7-da900523ac19", "status": "wip", "displayTitle": "Giloh", "Easton's": ["recdYT9mRCE20jsRP"], "verseCount": 2, "latitude": "31.616667", "longitude": "35.083333", "alphaGroup": "G", "slug": "giloh_479"}, "createdTime": "2017-09-19T23:40:41.000Z"}, {"id": "rec3XNe7xQ7Jn7wyn", "fields": {"placeLookup": "dibon-gad_333", "openBibleLat": "31.49684514", "openBibleLong": "35.78284105", "kjvName": "Dibon-gad", "esvName": "Dibon-gad", "rootID": ["rechszjphdueUPvPi"], "placeID": 333, "verses": ["recRQLDWDOMEeksgM", "recYR8ECiujM0nd8c"], "recogitoStatus": "UNVERIFIED", "recogitoUID": "c71f7a0f-7973-47c2-8e76-7a3c37d9ef4d", "hasBeenHere": ["recjNRR60PAuFtjha"], "status": "wip", "displayTitle": "Dibon-gad", "verseCount": 2, "latitude": "31.49684514", "longitude": "35.78284105", "alphaGroup": "D", "slug": "dibon-gad_333"}, "createdTime": "2017-09-19T23:40:41.000Z"}, {"id": "rec3YlUMCDBYgpxsL", "fields": {"placeLookup": "naioth_873", "openBibleLat": "31.83273947023218", "openBibleLong": "35.1801628605877", "kjvName": "Naioth", "esvName": "Naioth", "precision": "Rough", "rootID": ["recGdQVod5SbLO87Z"], "placeID": 873, "verses": ["recM1NebX76C74CzD", "recgjmLrYIxLnegyh", "recq8vf28OvETlfqS", "recxuDEiqZNUSwIUO", "recR2Cv4yHS2roMVp"], "recogitoStatus": "UNVERIFIED", "recogitoUID": "3d137ad3-9e49-46bc-a5cc-17b9cba768bf", "status": "wip", "displayTitle": "Naioth", "Easton's": ["rec0OJIrypZ7apGaj"], "verseCount": 5, "latitude": "31.83273947023218", "longitude": "35.1801628605877", "alphaGroup": "N", "slug": "naioth_873"}, "createdTime": "2017-09-19T23:40:41.000Z"}, {"id": "rec3gWYVMktOUkAzZ", "fields": {"placeLookup": "ekron_364", "openBibleLat": "31.77761411", "openBibleLong": "34.85214576", "kjvName": "Ekron", "esvName": "Ekron", "placeID": 364, "recogitoUri": "http://dare.ht.lu.se/places/28341", "recogitoLat": "31.7776", "recogitoLon": "34.85093", "verses": ["rec8NCo9Utmxl8Vyr", "recyAIWTbXCCEs6WA", "recDrZSejvaKaWcUZ", "recVOcDr0IbZ6PcXC", "recFZ9W6PVNN6vntK", "recCVo3L1K534o2SS", "recrFnaTVoOgHSGVe", "recDGXm3sy3kB9Fik", "recxTK4dHLv7QnDtG", "rec63Wci7L7XwSUOc", "recd1EDsALSmct8JU", "rec9mlf76S8iUOLd4", "recoFgWAVplfIIcAj", "recOX0m8AoRClVn6s", "recSHf36s4OMS5wkM", "recLTWrr4Q79ngn4s", "recVKpo7VdcG8Z6LV", "rec17CE5pe3vsH7TU", "recyNU0wIdIrVd9gE", "recuVH4krGaj72AJg"], "recogitoStatus": "VERIFIED", "recogitoType": "settlement", "recogitoLabel": "Ekron/Akkaron|Ekron/Akkaron, Tel Miqne/Khirbat el-Muqanna'", "recogitoUID": "ddf7d386-0939-40d7-a3d5-bb8314e5c793", "status": "wip", "displayTitle": "Ekron", "Easton's": ["recRvd3VvJDHFluII"], "verseCount": 20, "latitude": "31.7776", "longitude": "34.85093", "alphaGroup": "E", "slug": "ekron_364"}, "createdTime": "2017-09-19T23:40:41.000Z"}, {"id": "rec3gzPTVeaDAIJ5Q", "fields": {"placeLookup": "rehob_987", "openBibleLat": "33.219354", "openBibleLong": "35.544122", "kjvName": "Rehob", "esvName": "Rehob", "rootID": ["recDscMOGkYsInRIG"], "placeID": 987, "verses": ["recu0tbCqbjIjHxCp", "recu9m1wlzNF3UIi1"], "recogitoStatus": "UNVERIFIED", "recogitoUID": "ea6c00c5-e069-426d-ad23-e0ca75b1d72b", "status": "wip", "displayTitle": "Rehob", "ambiguous name": true, "verseCount": 2, "latitude": "33.219354", "longitude": "35.544122", "alphaGroup": "R", "slug": "rehob_987"}, "createdTime": "2017-09-19T23:40:41.000Z"}, {"id": "rec3iGhIgwWlatj5Z", "fields": {"placeLookup": "beon_176", "openBibleLat": "31.679454", "openBibleLong": "35.734892", "kjvName": "Beon", "esvName": "Beon", "rootID": ["recUga1ulf3rDvMru"], "placeID": 176, "verses": ["recMKXmrEP24mVX8c"], "recogitoStatus": "UNVERIFIED", "recogitoUID": "c5b057d5-5da7-4008-8465-4e21699a0839", "status": "wip", "displayTitle": "Beon", "verseCount": 1, "latitude": "31.679454", "longitude": "35.734892", "alphaGroup": "B", "slug": "beon_176"}, "createdTime": "2017-09-19T23:40:41.000Z"}, {"id": "rec3jnWpO8DBacyGU", "fields": {"placeLookup": "emek-keziz_381", "openBibleLat": "31.837062", "openBibleLong": "35.513151", "kjvName": "Emek-keziz", "esvName": "Emek-keziz", "precision": "Rough", "rootID": ["recRg102TEaTaifd2"], "placeID": 381, "verses": ["rec6fz1A2bXfiBPWA"], "recogitoStatus": "UNVERIFIED", "recogitoUID": "1788009a-2982-4a12-9acb-553f8469b1e0", "status": "wip", "displayTitle": "Emek-keziz", "Easton's": ["recZe3lqX6RxjvuOR"], "verseCount": 1, "latitude": "31.837062", "longitude": "35.513151", "alphaGroup": "E", "slug": "emek-keziz_381"}, "createdTime": "2017-09-19T23:40:41.000Z"}, {"id": "rec3kU3cxeTCp8t2S", "fields": {"placeLookup": "tochen_1173", "openBibleLat": "31.8099", "openBibleLong": "34.9365", "kjvName": "Tochen", "esvName": "Tochen", "precision": "Rough", "rootID": ["recR2iltmaNI9n7HL"], "placeID": 1173, "verses": ["rec0oqvnFzIA3Fygq"], "recogitoStatus": "UNVERIFIED", "recogitoUID": "83458f9e-952a-4fd8-b61d-0676516b61a6", "status": "wip", "displayTitle": "Tochen", "Easton's": ["recmyqdP7fXRFYdCg"], "verseCount": 1, "latitude": "31.8099", "longitude": "34.9365", "alphaGroup": "T", "slug": "tochen_1173"}, "createdTime": "2017-09-19T23:40:41.000Z"}, {"id": "rec3qLfY9kEC7Xnun", "fields": {"placeLookup": "hazar-susim_541", "openBibleLat": "31.391668", "openBibleLong": "34.940502", "kjvName": "Hazar-susim", "esvName": "Hazar-susim", "precision": "Rough", "rootID": ["recVaBWxUUcXkszSZ"], "placeID": 541, "verses": ["reckTJMo2b2R4Yr7L"], "recogitoStatus": "UNVERIFIED", "recogitoUID": "60f8f90b-14fc-46ac-827d-e6c8ffc90e82", "status": "wip", "displayTitle": "Hazar-susim", "verseCount": 1, "latitude": "31.391668", "longitude": "34.940502", "alphaGroup": "H", "slug": "hazar-susim_541"}, "createdTime": "2017-09-19T23:40:41.000Z"}, {"id": "rec3sBoYreDR4Dskj", "fields": {"placeLookup": "ham_514", "openBibleLat": "31.95018855", "openBibleLong": "35.92413136", "kjvName": "Ham", "esvName": "Ham", "rootID": ["recRqzbUZ7i6OPTa1"], "placeID": 514, "recogitoUri": "http://sws.geonames.org/3014029", "recogitoLat": "49.74721", "recogitoLon": "3.07301", "verses": ["recDrmqetQ5jZpGKF"], "recogitoStatus": "UNVERIFIED", "recogitoLabel": "Ham", "recogitoUID": "9a86f1be-91dd-4d0f-a2d8-40fff6268e36", "status": "wip", "displayTitle": "Ham", "ambiguous name": true, "verseCount": 1, "latitude": "31.95018855", "longitude": "35.92413136", "alphaGroup": "H", "slug": "ham_514"}, "createdTime": "2017-09-19T23:40:41.000Z"}, {"id": "rec3uYR8hYoJkFWrR", "fields": {"placeLookup": "beth-pelet_227", "openBibleLat": "31.215418", "openBibleLong": "34.942986", "kjvName": "Beth-pelet", "esvName": "Beth-pelet", "precision": "Rough", "rootID": ["recgek8WUtx6vEFbu"], "placeID": 227, "verses": ["recsVx8rprlvPGN0D", "rec82mgReCYZGMarp"], "recogitoStatus": "UNVERIFIED", "recogitoUID": "7b0fead1-ae6e-4339-b985-fee6e4154511", "status": "wip", "displayTitle": "Beth-pelet", "verseCount": 2, "latitude": "31.215418", "longitude": "34.942986", "alphaGroup": "B", "slug": "beth-pelet_227"}, "createdTime": "2017-09-19T23:40:41.000Z"}, {"id": "rec3uZ7bhZR9JTNnI", "fields": {"placeLookup": "kehelathah_680", "openBibleLat": "30.317396", "openBibleLong": "35.407152", "kjvName": "Kehelathah", "esvName": "Kehelathah", "precision": "Rough", "rootID": ["recn5ad7qKvkUdCyZ"], "placeID": 680, "verses": ["recJYkTrGoygzeohO", "recn14MtED9LMs8Pl"], "recogitoStatus": "UNVERIFIED", "recogitoUID": "c7836e0b-f3ec-4cdc-af75-4b637c68886b", "hasBeenHere": ["recjNRR60PAuFtjha"], "status": "wip", "displayTitle": "Kehelathah", "Easton's": ["recUzq0VPRDQV67en"], "verseCount": 2, "latitude": "30.317396", "longitude": "35.407152", "alphaGroup": "K", "slug": "kehelathah_680"}, "createdTime": "2017-09-19T23:40:41.000Z"}, {"id": "rec3w84nsjQvkJEE3", "fields": {"placeLookup": "ephes-dammim_399", "openBibleLat": "31.691186", "openBibleLong": "34.944496", "kjvName": "Ephes-dammim", "esvName": "Ephes-dammim", "placeID": 399, "verses": ["recpUFtPJpeGDPQiO"], "recogitoStatus": "UNVERIFIED", "recogitoUID": "8e08c090-c0d4-44bc-98f7-cb6a29ffdb4d", "status": "wip", "displayTitle": "Ephes-dammim", "verseCount": 1, "latitude": "31.691186", "longitude": "34.944496", "alphaGroup": "E", "slug": "ephes-dammim_399"}, "createdTime": "2017-09-19T23:40:41.000Z"}, {"id": "rec44WSBX7TZj0taX", "fields": {"placeLookup": "madmenah_751", "openBibleLat": "31.800000", "openBibleLong": "35.250000", "kjvName": "Madmenah", "esvName": "Madmenah", "precision": "Rough", "rootID": ["recTSS22B5fmom2Vh"], "placeID": 751, "verses": ["recmrtF4e7QxL3rD4"], "recogitoStatus": "UNVERIFIED", "recogitoUID": "78fe839c-05c1-4dd8-bec4-121d60693a9d", "status": "wip", "displayTitle": "Madmenah", "Easton's": ["recCCWQIwGWjb9Tv7"], "verseCount": 1, "latitude": "31.800000", "longitude": "35.250000", "alphaGroup": "M", "slug": "madmenah_751"}, "createdTime": "2017-09-19T23:40:41.000Z"}, {"id": "rec47z6GarT41J5Vh", "fields": {"placeLookup": "engedi_389", "openBibleLat": "31.46152536", "openBibleLong": "35.39241108", "kjvName": "Engedi", "esvName": "Engedi", "placeID": 389, "recogitoUri": "http://dare.ht.lu.se/places/28342", "recogitoLat": "31.46017", "recogitoLon": "35.38899", "verses": ["rec0rWXSsB5L3lD3D", "rechrAW4JuITNaLw3", "rec4IgUsfF38kYkHC", "recSqrbP6PMldrJ2g", "recq3OoNfGynkKUUT", "recsA2sz5uGKW4TiE"], "recogitoStatus": "VERIFIED", "recogitoType": "settlement", "recogitoLabel": "Engaddai|Engaddai, 'En Gedi", "recogitoUID": "31475928-f1ec-4c14-a3ec-556eca13b1a0", "status": "wip", "displayTitle": "Engedi", "verseCount": 6, "latitude": "31.46017", "longitude": "35.38899", "alphaGroup": "E", "slug": "engedi_389"}, "createdTime": "2017-09-19T23:40:41.000Z"}, {"id": "rec48Xqy5594zh8gV", "fields": {"placeLookup": "bamoth-baal_158", "openBibleLat": "31.76503129703305", "openBibleLong": "35.71856575741812", "kjvName": "Bamoth-baal", "esvName": "Bamoth-baal", "precision": "Rough", "rootID": ["rec0YWbwVkA7RQKBw"], "placeID": 158, "verses": ["reccdl78FJZzzkfNW", "recmNoh8Kyylj9cWB"], "recogitoStatus": "UNVERIFIED", "recogitoUID": "6784cfdf-27c3-4acf-aee6-7c7639fbd5c6", "status": "wip", "displayTitle": "Bamoth-baal", "verseCount": 2, "latitude": "31.76503129703305", "longitude": "35.71856575741812", "alphaGroup": "B", "slug": "bamoth-baal_158"}, "createdTime": "2017-09-19T23:40:41.000Z"}, {"id": "rec49TXccUxr6Dnhe", "fields": {"placeLookup": "ariel_89", "openBibleLat": "31.777444", "openBibleLong": "35.234935", "kjvName": "Ariel", "esvName": "Ariel", "rootID": ["recL1WV82pXaRBQ59"], "placeID": 89, "recogitoUri": "http://sws.geonames.org/8199394", "recogitoLat": "32.1065", "recogitoLon": "35.18449", "verses": ["rec3l0ETsOwLEbAuk", "recPWxCWDTugAirwu", "recoFG3alLD4XWTo2"], "recogitoStatus": "UNVERIFIED", "recogitoLabel": "Ariel", "recogitoUID": "937e3e97-fecc-41ba-9c97-a121b4e7b889", "status": "wip", "displayTitle": "Ariel", "Easton's": ["recxPxVvQZELVeIzD"], "verseCount": 3, "latitude": "31.777444", "longitude": "35.234935", "alphaGroup": "A", "slug": "ariel_89"}, "createdTime": "2017-09-19T23:40:41.000Z"}, {"id": "rec4D5Z8lcPHzichv", "fields": {"placeLookup": "shiloah_1080", "openBibleLat": "31.777444", "openBibleLong": "35.234935", "kjvName": "Shiloah", "esvName": "Shiloah", "precision": "Related-Within", "rootID": ["recL1WV82pXaRBQ59"], "placeID": 1080, "recogitoUri": "http://sws.geonames.org/3488540", "recogitoLat": "18.16709", "recogitoLon": "-77.70348", "verses": ["recafWNXhkySnO4sL"], "recogitoStatus": "UNVERIFIED", "recogitoLabel": "Siloah", "recogitoUID": "574650fc-c9ab-4c4d-a410-f0c98c60cd0c", "status": "wip", "displayTitle": "Shiloah", "verseCount": 1, "latitude": "31.777444", "longitude": "35.234935", "alphaGroup": "S", "slug": "shiloah_1080"}, "createdTime": "2017-09-19T23:40:41.000Z"}, {"id": "rec4IK8BRFWJUhjhQ", "fields": {"placeLookup": "beeroth_168", "openBibleLat": "31.90007449", "openBibleLong": "35.21668801", "kjvName": "Beeroth", "esvName": "Beeroth", "placeID": 168, "verses": ["rec4QZU8c0T0xjpPF", "recOzVSuMmaENBu0R", "recMprMkkXc6KZzpL", "recBetDdR3URFtjwM", "recx5UrQAtiSHCh3T", "recB1oheOyxnXs1E8"], "recogitoStatus": "NOT_IDENTIFIABLE", "recogitoUID": "974b2dff-995a-43bc-b4f0-79d9f7fcc44e", "status": "wip", "displayTitle": "Beeroth", "Easton's": ["recaVhxHXodeE2oCa"], "verseCount": 6, "latitude": "31.90007449", "longitude": "35.21668801", "alphaGroup": "B", "slug": "beeroth_168"}, "createdTime": "2017-09-19T23:40:41.000Z"}, {"id": "rec4NpDmfviG4xFA5", "fields": {"placeLookup": "mount_zemaraim_859", "openBibleLat": "31.910999", "openBibleLong": "35.45728", "kjvName": "mount Zemaraim", "esvName": "Mount Zemaraim", "rootID": ["recgy8VDM6SZ3R4p4"], "placeID": 859, "verses": ["rec0KXKHin2YgjiI1"], "recogitoStatus": "UNVERIFIED", "recogitoUID": "fd920af2-b76c-49a7-b41e-0b62ef8f05c5", "status": "wip", "displayTitle": "mount Zemaraim", "Easton's": ["recchj2dayCZum8LS"], "verseCount": 1, "latitude": "31.910999", "longitude": "35.45728", "alphaGroup": "M", "slug": "mount_zemaraim_859"}, "createdTime": "2017-09-19T23:40:41.000Z"}, {"id": "rec4OMrlvP8YRP40o", "fields": {"placeLookup": "shoa_1087", "openBibleLat": "34.798311", "openBibleLong": "48.514966", "kjvName": "Shoa", "esvName": "Shoa", "precision": "Rough", "rootID": ["recU6Ze8zYV8DqXew"], "placeID": 1087, "verses": ["recQbWU0cw6h5OtpY"], "recogitoStatus": "UNVERIFIED", "recogitoUID": "9fdb85ac-fd9c-46dc-b5cf-66e7d92444f8", "status": "wip", "displayTitle": "Shoa", "Easton's": ["recZfy6OcMMEjsiaA"], "verseCount": 1, "latitude": "34.798311", "longitude": "48.514966", "alphaGroup": "S", "slug": "shoa_1087"}, "createdTime": "2017-09-19T23:40:41.000Z"}, {"id": "rec4fn00zPmMzy1Ez", "fields": {"placeLookup": "mount_ephraim_833", "openBibleLat": "32.23293814", "openBibleLong": "35.2730418", "kjvName": "mount Ephraim", "esvName": "Mount Ephraim", "rootID": ["rec2YUNAEJFFfYOXk"], "placeID": 833, "recogitoUri": "http://sws.geonames.org/4948667", "recogitoLat": "42.37314", "recogitoLon": "-73.36761", "verses": ["rec0Sj0wnDUASt13U"], "recogitoStatus": "UNVERIFIED", "recogitoLabel": "Richmond", "recogitoUID": "1deb461d-8ee2-45a3-90b7-004155e02510", "status": "wip", "displayTitle": "mount Ephraim", "verseCount": 1, "latitude": "32.23293814", "longitude": "35.2730418", "alphaGroup": "M", "slug": "mount_ephraim_833"}, "createdTime": "2017-09-19T23:40:41.000Z"}, {"id": "rec4g6YLcH5MhL0th", "fields": {"placeLookup": "forest_584", "openBibleLat": "31.777444", "openBibleLong": "35.234935", "kjvName": "Forest", "esvName": "House of the Forest", "precision": "Related-Within", "rootID": ["recL1WV82pXaRBQ59"], "placeID": 584, "verses": ["recavc4ieaksT7Wi2"], "recogitoStatus": "NOT_IDENTIFIABLE", "recogitoUID": "9104cabc-7b98-401f-af18-c72382352bff", "status": "wip", "displayTitle": "Forest", "verseCount": 1, "latitude": "31.777444", "longitude": "35.234935", "alphaGroup": "F", "slug": "forest_584"}, "createdTime": "2017-09-19T23:40:41.000Z"}, {"id": "rec4mw0iDCnUvKW4f", "fields": {"placeLookup": "mount_halak_839", "openBibleLat": "30.916667", "openBibleLong": "34.833333", "kjvName": "mount Halak", "esvName": "Mount Halak", "comment": "; http://www.bibleorigins.net/MountHalakGebelHalaqMap.html", "placeID": 839, "verses": ["recA0nMfs8U2xTRqu", "recGzF3eFVV7sNK8p"], "recogitoStatus": "UNVERIFIED", "recogitoUID": "54dd1498-f159-4149-8748-f8ada707196f", "status": "wip", "displayTitle": "mount Halak", "Easton's": ["recAmy8VgLvkt6QIp"], "verseCount": 2, "latitude": "30.916667", "longitude": "34.833333", "alphaGroup": "M", "slug": "mount_halak_839"}, "createdTime": "2017-09-19T23:40:41.000Z"}, {"id": "rec4usYdsZVP42UId", "fields": {"placeLookup": "topheth_1176", "openBibleLat": "31.769079", "openBibleLong": "35.227994", "kjvName": "Topheth", "esvName": "Topheth", "rootID": ["recsoRbSuiqYLSGzN"], "placeID": 1176, "verses": ["recbiddBM7jlVmsO4", "recZT9NfyINYZA8rF", "rec25qSDf0BUmERcx", "recqfPeOGoN2Slw2D", "recCG0eYeRx1haHs4", "recduUc5vIsyfVuIG", "recZasJvDqpLMvLL0", "recKRiq8HBQ2mytKD"], "recogitoStatus": "NOT_IDENTIFIABLE", "recogitoUID": "a28c0954-02da-40ed-b96f-d622719ac49e", "status": "wip", "displayTitle": "Topheth", "verseCount": 8, "latitude": "31.769079", "longitude": "35.227994", "alphaGroup": "T", "slug": "topheth_1176"}, "createdTime": "2017-09-19T23:40:41.000Z"}, {"id": "rec4vcolAuZ1BVvOs", "fields": {"placeLookup": "zeboiim_1244", "openBibleLat": "31.11942270162137", "openBibleLong": "35.41253049195169", "kjvName": "Zeboiim", "esvName": "Zeboiim", "precision": "Rough", "rootID": ["recqAEHPEI3gAP9H8"], "placeID": 1244, "verses": ["rec0uqY3XTa0M5Ff0", "rec7RkrLPXWFs28jI", "recwv5FwAJZZOd3Xx", "recJVc6fmL96GEl8n", "recqj2bCqlmn0SRBt"], "recogitoStatus": "UNVERIFIED", "recogitoUID": "bd095565-6e96-4e50-8e00-5b2106cc5789", "status": "wip", "displayTitle": "Zeboiim", "Easton's": ["recvvPgPuUseqxdd6"], "verseCount": 5, "latitude": "31.11942270162137", "longitude": "35.41253049195169", "alphaGroup": "Z", "slug": "zeboiim_1244"}, "createdTime": "2017-09-19T23:40:41.000Z"}, {"id": "rec4ve9U7ZrXrnVk0", "fields": {"placeLookup": "ephraim_401", "openBibleLat": "31.95378956", "openBibleLong": "35.29913578", "kjvName": "Ephraim", "esvName": "Ephraim", "rootID": ["recgFMAc5yMeSPZvu"], "placeID": 401, "recogitoUri": "http://pleiades.stoa.org/places/687896", "recogitoLat": "31.954665", "recogitoLon": "35.299196", "verses": ["rec7LFghJTQB5xvei"], "recogitoStatus": "UNVERIFIED", "recogitoType": "settlement", "recogitoLabel": "Ephraim/Apheraima|Ephraim/Apheraima, et Tayyibe", "recogitoUID": "23a3e0a2-2019-49f4-9092-aed1c157e7da", "status": "wip", "displayTitle": "Ephraim", "verseCount": 1, "latitude": "31.95378956", "longitude": "35.29913578", "alphaGroup": "E", "slug": "ephraim_401"}, "createdTime": "2017-09-19T23:40:41.000Z"}, {"id": "rec4yGdQ6cs8KTqMx", "fields": {"placeLookup": "kibroth-hattaavah_685", "openBibleLat": "28.916667", "openBibleLong": "34.500000", "kjvName": "Kibroth-hattaavah", "esvName": "Kibroth-hattaavah", "precision": "Rough", "rootID": ["recUD3AjGYUKz6ob7"], "placeID": 685, "verses": ["recIA1lyp4E2zhGG0", "rec9XiCpZEDdLA6Ao", "recjPR7UTMeI0PTjn", "recmaNHwsDrCJ7qr6", "recQl8im3fBkdjMWb"], "recogitoStatus": "UNVERIFIED", "recogitoUID": "f0783a5a-0b9e-4571-87d9-9fec3a7d1f5d", "hasBeenHere": ["recjNRR60PAuFtjha"], "status": "wip", "displayTitle": "Kibroth-hattaavah", "verseCount": 5, "latitude": "28.916667", "longitude": "34.500000", "alphaGroup": "K", "slug": "kibroth-hattaavah_685"}, "createdTime": "2017-09-19T23:40:41.000Z"}, {"id": "rec4yrH3aeLayLu5Y", "fields": {"placeLookup": "tob_1172", "openBibleLat": "32.561735", "openBibleLong": "36.240494", "kjvName": "Tob", "esvName": "Tob", "comment": "from harper; now et-Taiyibeh", "placeID": 1172, "recogitoUri": "http://sws.geonames.org/3108042", "recogitoLat": "42.29846", "recogitoLon": "-2.81399", "verses": ["recoxlSuC7X6fjiaI", "recUAjNYCOWRCiZ6G"], "recogitoStatus": "UNVERIFIED", "recogitoLabel": "Tob\u00eda", "recogitoUID": "627a385d-9df6-41f3-9457-bbd065b9adcf", "status": "wip", "displayTitle": "Tob", "Easton's": ["rechoTrweFd7lfakw"], "verseCount": 2, "latitude": "32.561735", "longitude": "36.240494", "alphaGroup": "T", "slug": "tob_1172"}, "createdTime": "2017-09-19T23:40:41.000Z"}, {"id": "rec4zjcf8PmeLpWQi", "fields": {"placeLookup": "aphek_73", "openBibleLat": "32.77826807", "openBibleLong": "35.69874935", "kjvName": "Aphek", "esvName": "Aphek", "placeID": 73, "verses": ["recwd1PSwx1oxxomi", "recjXXnLX6EsaIWOG", "rec5GjdSciH14lQa2"], "recogitoStatus": "UNVERIFIED", "recogitoUID": "dc30c43c-018c-4f48-84ba-e6d5aa4a56e5", "status": "wip", "displayTitle": "Aphek", "ambiguous name": true, "Easton's": ["recJI4TD2MLdhryrV"], "verseCount": 3, "latitude": "32.77826807", "longitude": "35.69874935", "alphaGroup": "A", "slug": "aphek_73"}, "createdTime": "2017-09-19T23:40:41.000Z"}, {"id": "rec59YRMb8c7bTak3", "fields": {"placeLookup": "calno_270", "openBibleLat": "32.127213", "openBibleLong": "45.229995", "kjvName": "Calno", "esvName": "Calno", "rootID": ["recTCLydxA9SiyYUl"], "placeID": 270, "verses": ["recvFKFYg0KwKa0Dh"], "recogitoStatus": "UNVERIFIED", "recogitoUID": "c2627cb2-4934-4ff5-9552-2b6db396c9da", "status": "wip", "displayTitle": "Calno", "verseCount": 1, "latitude": "32.127213", "longitude": "45.229995", "alphaGroup": "C", "slug": "calno_270"}, "createdTime": "2017-09-19T23:40:41.000Z"}, {"id": "rec5DyQDXpkG4OiFl", "fields": {"placeLookup": "jahaz_617", "openBibleLat": "31.50100309", "openBibleLong": "35.92063125", "kjvName": "Jahaz", "esvName": "Jahaz", "placeID": 617, "verses": ["recY82I6R4kYJwp0P", "recKxXl3f9AM4bhMk", "recSmVYsPYOWXaBNU", "recDjhLpxMx4Q3Pzk", "recGN3rRXIpqbr1At"], "recogitoStatus": "UNVERIFIED", "recogitoUID": "0075d705-4357-459c-9778-100eb6ed82d6", "status": "wip", "displayTitle": "Jahaz", "Easton's": ["recfQS7aihAKiXQSB"], "verseCount": 5, "latitude": "31.50100309", "longitude": "35.92063125", "alphaGroup": "J", "slug": "jahaz_617"}, "createdTime": "2017-09-19T23:40:41.000Z"}, {"id": "rec5GyUpKvcWOTCzM", "fields": {"placeLookup": "mareal_766", "openBibleLat": "32.697409", "openBibleLong": "35.241789", "kjvName": "Mareal", "esvName": "Mareal", "comment": "now Malul", "placeID": 766, "verses": ["recLA9PGCyqjaKwR9"], "recogitoStatus": "UNVERIFIED", "recogitoUID": "a46e52ed-24d9-482a-86a6-e3d3aeffb241", "status": "wip", "displayTitle": "Mareal", "Easton's": ["reckO2ZoRWT6MyaoP"], "verseCount": 1, "latitude": "32.697409", "longitude": "35.241789", "alphaGroup": "M", "slug": "mareal_766"}, "createdTime": "2017-09-19T23:40:41.000Z"}, {"id": "rec5JrZRD4W7OiWDK", "fields": {"placeLookup": "amam_54", "openBibleLat": "31.162327", "openBibleLong": "35.057114", "kjvName": "Amam", "esvName": "Amam", "precision": "Rough", "rootID": ["recNebppBEBJdV4YY"], "placeID": 54, "verses": ["rec2vDyeCfk8MLrL9"], "recogitoStatus": "UNVERIFIED", "recogitoUID": "54b686e1-f28c-46d1-966d-a51c13b98731", "status": "wip", "displayTitle": "Amam", "verseCount": 1, "latitude": "31.162327", "longitude": "35.057114", "alphaGroup": "A", "slug": "amam_54"}, "createdTime": "2017-09-19T23:40:41.000Z"}, {"id": "rec5Pu3ZrQxBUtK9O", "fields": {"placeLookup": "dilean_334", "openBibleLat": "31.56485056116292", "openBibleLong": "34.8467256730566", "kjvName": "Dilean", "esvName": "Dilean", "precision": "Rough", "rootID": ["recH30EhVzvnkXBTl"], "placeID": 334, "verses": ["recetb7QXr4biYGmR"], "recogitoStatus": "UNVERIFIED", "recogitoUID": "bc0cc33d-0fd0-4965-b239-245899be1e76", "status": "wip", "displayTitle": "Dilean", "verseCount": 1, "latitude": "31.56485056116292", "longitude": "34.8467256730566", "alphaGroup": "D", "slug": "dilean_334"}, "createdTime": "2017-09-19T23:40:41.000Z"}, {"id": "rec5S2a0FVulB61s7", "fields": {"placeLookup": "kue_709", "openBibleLat": "36.91802695356275", "openBibleLong": "34.89153398422567", "kjvName": "Kue", "esvName": "Kue", "comment": "from tyndale", "precision": "Related-Surrounding", "rootID": ["recyT2hLNYpIFXcAs"], "placeID": 709, "recogitoUri": "http://sws.geonames.org/1529355", "recogitoLat": "44.42707", "recogitoLon": "84.90069", "verses": ["recbeoOxNydjwIGZk", "recl5tDB57hUhcxDo"], "recogitoStatus": "UNVERIFIED", "recogitoLabel": "Kuytun", "recogitoUID": "3ff3b13f-3c69-4780-9a73-cf933a9deabf", "status": "wip", "displayTitle": "Kue", "verseCount": 2, "latitude": "36.91802695356275", "longitude": "34.89153398422567", "alphaGroup": "K", "slug": "kue_709"}, "createdTime": "2017-09-19T23:40:41.000Z"}, {"id": "rec5SkGvGgdC9E9bf", "fields": {"placeLookup": "adummim_32", "openBibleLat": "31.817585", "openBibleLong": "35.361646", "kjvName": "Adummim", "esvName": "Adummim", "placeID": 32, "recogitoUri": "http://pleiades.stoa.org/places/687961", "recogitoLat": "31.816277", "recogitoLon": "35.359004", "verses": ["recQfD1TLuyT0ydRx", "recqbysdlS5EV7qVV"], "recogitoStatus": "UNVERIFIED", "recogitoType": "fort", "recogitoLabel": "Maledomnei|Maledomnei/Ma'ale Adummim, Tal'at ed Damm", "recogitoUID": "4b1924a0-817f-4c5a-890e-6564cbe7541e", "status": "wip", "displayTitle": "Adummim", "Easton's": ["recsfB6tO2uSPaidh"], "verseCount": 2, "latitude": "31.817585", "longitude": "35.361646", "alphaGroup": "A", "slug": "adummim_32"}, "createdTime": "2017-09-19T23:40:41.000Z"}, {"id": "rec5WK4QGcKa48pA6", "fields": {"placeLookup": "nineveh_899", "openBibleLat": "36.35941", "openBibleLong": "43.152887", "kjvName": "Nineveh", "esvName": "Nineveh", "comment": "Nineveh in KML", "placeID": 899, "recogitoUri": "http://pleiades.stoa.org/places/874621", "recogitoLat": "36.34773", "recogitoLon": "43.1609", "verses": ["recboBHjrxNTpj8D6", "rec6ko1E4ctpKjw4B", "recM3hNkzbodSozda", "recwbeYd70D5bC6Cf", "recKfQHG7j4ZF5kTS", "recDTnA7IB6GZr3wR", "recYglFZ2NKr7g8eY", "rec9aaz6EViKUF3zZ", "rec71r2B0yCjZGoET", "recsfHixSiRcycuBp", "recnQlhFJRhs6ENoB", "recp9iR58llu9tuiI", "rec02EgC8o2FhCK4P", "recuflxpPd9de3ApH", "recSsz7qqu3zQUXjO", "recX8JrMHxtAaRWTz", "recRQVcaEAnUPfSuW", "recRhRHZg2hIeWjhR"], "recogitoStatus": "VERIFIED", "recogitoType": "settlement", "recogitoLabel": "Nineveh/Ninos|Nabi Yunus|Nineveh/Ninos, Kuyunjik, Mosul", "recogitoUID": "41dceada-bd4e-4688-8476-c3bfde786e76", "status": "wip", "displayTitle": "Nineveh", "Easton's": ["recdz09xGZFllAjk5"], "verseCount": 18, "latitude": "36.34773", "longitude": "43.1609", "alphaGroup": "N", "slug": "nineveh_899"}, "createdTime": "2017-09-19T23:40:41.000Z"}, {"id": "rec5XS12X23Uadj5G", "fields": {"placeLookup": "bithynia_250", "openBibleLat": "40.905503", "openBibleLong": "30.685778", "kjvName": "Bithynia", "esvName": "Bithynia", "comment": "region", "precision": "Related-Surrounding", "featureType": "Region", "dictionaryLink": "https://www.biblestudytools.com/dictionaries/eastons-bible-dictionary/bithynia.html", "dictionaryText": " a province in Asia Minor, to the south of the Euxine and Propontis. Christian congregations were here formed at an early time ( 1 Peter 1:1  ). Paul was prevented by the Spirit from entering this province ( Acts 16:7  ). It is noted in church history as the province ruled over by Pliny as Roman proconsul, who was perplexed as to the course he should take with the numerous Christians brought before his tribunal on account of their profession of Christianity and their conduct, and wrote to Trajan, the emperor, for instructions (A.D. 107).", "placeID": 250, "recogitoUri": "http://pleiades.stoa.org/places/991389", "recogitoLat": "42.5", "recogitoLon": "32.5", "verses": ["rec4GHUzFBRAzbrx0", "reczkrSRLt8qSAS10"], "recogitoStatus": "VERIFIED", "recogitoType": "province", "recogitoLabel": "Bithynia", "recogitoUID": "0509e76f-b7e2-4edf-863b-72f563bd7c75", "status": "publish", "displayTitle": "Bithynia", "Easton's": ["recGpFvb2DQFLzGaP"], "verseCount": 2, "latitude": "42.5", "longitude": "32.5", "alphaGroup": "B", "slug": "bithynia_250"}, "createdTime": "2017-09-19T23:40:41.000Z"}, {"id": "rec5Yu6987dc60uKz", "fields": {"placeLookup": "mount_sinai_855", "openBibleLat": "28.539722", "openBibleLong": "33.973333", "kjvName": "mount Sinai", "esvName": "Mount Sinai", "featureType": "Mountain", "aliases": "Horeb, Mount Horeb", "dictionaryLink": "https://www.biblestudytools.com/dictionaries/eastons-bible-dictionary/sinai.html", "dictionaryText": " of Sin (the moon god), called also Horeb, the name of the mountain district which was reached by the Hebrews in the third month after the Exodus. Here they remained encamped for about a whole year. Their journey from the Red Sea to this encampment, including all the windings of the route, was about 150 miles. The last twenty-two chapters of Exodus, together with the whole of Leviticus and Nu ch. 1-11, contain a record of all the transactions which occurred while they were here. From Rephidim ( Exodus 17:8-13  ) the Israelites journeyed forward through the Wady Solaf and Wady esh-Sheikh into the plain of er-Rahah, \"the desert of Sinai,\" about 2 miles long and half a mile broad, and encamped there \"before the mountain.\" The part of the mountain range, a protruding lower bluff, known as the Ras Sasafeh (Sufsafeh), rises almost perpendicularly from this plain, and is in all probability the Sinai of history. Dean Stanley thus describes the scene:, \"The plain itself is not broken and uneven and narrowly shut in, like almost all others in the range, but presents a long retiring sweep, within which the people could remove and stand afar off. The cliff, rising like a huge altar in front of the whole congregation, and visible against the sky in lonely grandeur from end to end of the whole plain, is the very image of the 'mount that might be touched,' and from which the voice of God might be heard far and wide over the plain below.\" This was the scene of the giving of the law. From the Ras Sufsafeh the law was proclaimed to the people encamped below in the plain of er-Rahah. During the lengthened period of their encampment here the Israelites passed through a very memorable experience. An immense change passed over them. They are now an organized nation, bound by covenant engagement to serve the Lord their God, their ever-present divine Leader and Protector. At length, in the second month of the second year of the Exodus, they move their camp and march forward according to a prescribed order. After three days they reach the \"wilderness of Paran,\" the \"et-Tih\", i.e., \"the desert\", and here they make their first encampment. At this time a spirit of discontent broke out amongst them, and the Lord manifested his displeasure by a fire which fell on the encampment and inflicted injury on them. Moses called the place Taberah (q.v.),  Numbers 11:1-3  . The journey between Sinai and the southern boundary of the Promised Land (about 150 miles) at Kadesh was accomplished in about a year. (See MAP facing page 204.)", "placeID": 855, "recogitoUri": "http://pleiades.stoa.org/places/746815", "recogitoLat": "28.58771", "recogitoLon": "33.921682", "verses": ["reczReYb70SVBjEY6", "recps2KmqtM4u4ysH", "recYlzIfO0wop5Lj8", "recKACn4lwfABhKoW", "recDQw8bqgs8Jsmvd", "recbuYXqz9Nt56BwW", "recWbYp6z2iXXTPc0", "rec1lwKq80BvHIOMm", "recwAuzEQFlJSKzxz", "recWUUmLjufUFf1JA", "recbKb1nbNPObo6jY", "rec7kNIfAE5Lruwrk", "recEBPK47rJDTfNBY", "recVMTthAl7lWvOQL", "recjb6Nux4X4FeAWQ", "rec6jyYd6miDOKf1v", "recaccIdFEODpICMA", "rec1fsJ2CQAmHEVQa", "recvBQnFWBeYhk7vO", "recd9e0zIvPRZTCWs"], "recogitoStatus": "VERIFIED", "recogitoType": "mountain", "recogitoComments": "Same as Sinai, Horeb, Mount Horeb", "recogitoLabel": "Syna M.", "recogitoUID": "afbc6dc0-1174-4140-9220-34e163336818", "status": "publish", "displayTitle": "mount Sinai", "verseCount": 20, "latitude": "28.58771", "longitude": "33.921682", "alphaGroup": "M", "slug": "mount_sinai_855"}, "createdTime": "2017-09-19T23:40:41.000Z"}, {"id": "rec5a5MQ9kYYHfV1e", "fields": {"placeLookup": "valley_of_jehoshaphat_1209", "openBibleLat": "31.772134", "openBibleLong": "35.236596", "kjvName": "valley of Jehoshaphat", "esvName": "Valley of Jehoshaphat", "rootID": ["reccf5Vf48NjEXaxz"], "placeID": 1209, "verses": ["recHlwmmmRMx1jTf8", "recywHHjvJMs1pbjX"], "recogitoStatus": "UNVERIFIED", "recogitoUID": "2661b942-2405-40ec-9481-c3203dcd2a7b", "status": "wip", "displayTitle": "valley of Jehoshaphat", "verseCount": 2, "latitude": "31.772134", "longitude": "35.236596", "alphaGroup": "V", "slug": "valley_of_jehoshaphat_1209"}, "createdTime": "2017-09-19T23:40:41.000Z"}, {"id": "rec5aklHvut8pLc3y", "fields": {"placeLookup": "pishon_951", "kjvName": "Pison", "esvName": "Pishon", "precision": "Unlocated", "featureType": "Water", "placeID": 951, "verses": ["rec8ar2IYnHtdhg23"], "recogitoStatus": "UNVERIFIED", "recogitoUID": "796cf53a-ee54-470c-9251-8dd2fd28a981", "status": "wip", "displayTitle": "Pison", "verseCount": 1, "alphaGroup": "P", "slug": "pishon_951"}, "createdTime": "2017-09-19T23:40:41.000Z"}, {"id": "rec5dSSsOutWlH2fW", "fields": {"placeLookup": "jordan_653", "openBibleLat": "32.309099", "openBibleLong": "35.5599", "kjvName": "Jordan", "esvName": "Jordan", "comment": "river", "precision": "Center", "featureType": "Water", "rootID": ["recGGj6qjPjQ76jkF"], "placeID": 653, "recogitoUri": "http://pleiades.stoa.org/places/687932", "recogitoLat": "33.1864496", "recogitoLon": "35.6191595", "verses": ["recmiyOQXGdmzi2u1", "rec61Zw6vXn3bd46n", "recEL8ZNTp2K1sZNX", "recqIIENJypPtGju8", "rec57xroqoXpj79CA", "recGwXFv6fObRloby", "recg5bMS65ahB97G4", "recfnbbzOaUSYfOH2", "recDg9hDbCTNiiMi4", "recHDikuSlI9bdczN", "recuukD4DlPSHTaaR", "recxDEgSdXE2c9IWe", "recpKdOisus8wd8lN", "recnnrQo6Htocy5P1", "recWy99kR3N5uRQlE", "recgodkU9uIgC3KF4", "recyLJNIt5WSBfEXk", "rec1TIotzij75dBCp", "recRROgaDvIX41dG0", "recNbtlUUVwSKuPzO", "rec5pf4sQU0tyx6V5", "recXfdltPCXzmzrWT", "recXn9KdgxmBs9Dda", "recN3DO87dPKiAj9n", "recfKzXXPdJtVGIdU", "recX6uX2rRaQZz7cm", "rec6rAixINf4SLSeA", "recJRJrvfhaSpUHQ3", "rec8Kcv8JcbOjmqMO", "rec5yR4K55vZi7mQj", "recSS7BgDNramQgLn", "recaPI4VsgMNovcjM", "reclLwXxzYfx2qHbQ", "rec5Oaa41zexBXoWm", "recRcTQwy6mucstuh", "recUgweLt9IorQA6l", "recPjRuLfrDQLSru2", "recZbroxuwkmABbM4", "recstecnDEtGiy4FA", "rec7Snd6jmMNPhbHj", "recBFeoTLBFQdyvXG", "recTILan85v9KCAAH", "recqciGgJGUDoCbMD", "recGrD0AHZe0CJFPI", "recdx2r13fBeWvLdP", "rec6sGbqt9nu45mf0", "recZ3RnFluIEpr2m0", "recgyqomRbbxfAhLR", "rec2YFAkYGemqcAKQ", "recWl61kTp483Uyjp", "recsMWyipaK9wSxr0", "recaLYOTt1PVZYnN7", "recdlYZyeu0uHYrZg", "recFgIOCY6fgos65k", "recrSColUhOt6aEZc", "recVIh7E9GB6tFUSG", "recIpmcts3snI7DSm", "recu6wFmXAGOOhqu8", "recZm3D8yxpTVzoA8", "recfa1nNEDDqkEdiV", "rechzM80Vfiwa9Cyc", "rec46gHSEU8AndRRj", "recn4FeULkPa5cZl8", "reclFaJsDWEMOXpY7", "rec4PEaVG2d0tk5aY", "recZ9EeoddjVnrj6N", "recoxyd3SXrMubbHA", "recI32zqTw3FRSSQK", "recMkuhXUSLinWOQo", "recKjdBSz9oYzPUoh", "rec2VzPUzAOJbRr2N", "recp8j1G1U9VTMbFC", "recIhOmFdYiXDag3X", "recoWzoBFF118zbqb", "recL68eL5B6PHsfzj", "recNwaEbw6A1cAKtk", "rec0mEoHSUTg2rBZQ", "recnie1G6qZlmXkHF", "recFYpdD26uw43FZ5", "recXalwjTWkX2oVMX", "recxE3meBDyGxiLqI", "recGzF3eFVV7sNK8p", "recjwuVAjlr0SqolL", "rec4AEwiYvNZjBMS0", "recg86yYAsemH4R50", "recv5HgChwD0xP5qC", "recQxeP0QqlRBOB6W", "recH9ISjG99M437yL", "recadAAkrtsAETRHq", "recO1q7Hnx4U8nQgP", "recF7TSvT31OjxVcO", "recwI5uUsrNFKbuum", "rec5bSiw1AB9jgS8Q", "recm0ZPoZdZtSVnCG", "reckuUrcFeXCUkvGw", "recU3tzlar5AE2qHw", "recuZ1h1Drk6y1pZg", "recEnQH1bbNS6KwJf", "reczRvjQJ6ZlPhS3F", "recHO1ysEhae8aBlt", "recOj0PKKR58hosdq", "recBbra0UmMPEWda7", "recIPHma9RCGAaPfv", "recKg3ewlOa9y2ifv", "recfhv6oNmOs90YLK", "reckoQ7XL5dWyvH8r", "recXOCV1LtqFgVViJ", "recAttDOZlWg19ENo", "recAbdOViPsKbNkIY", "rec0Xw2183zFcKpW1", "recoWiKzPl7eacsJu", "recR1MMGkXDK7Rxh9", "recyFdN0A5NgodHBc", "recxCXuv5UGqnnJEE", "recWOw5dvUYINXHES", "reccXBLAB405AAAIp", "recDrJ5qE1fqGo9Ii", "rec8TQWdZMEltpBwb", "rec0fNk0VifwksdFq", "recL44twCGbcZEQEH", "rechAwDsQCqwgeQuI", "recc23gUbBeeLHvXy", "recqV6oq1DO4kAXlQ", "recC6UGbt8R94RQ8e", "recQzCKZGe2g8wCL4", "recqYJFFTI31VGoUb", "recAZdMrAi58AA2ed", "rec3MFGkhkMiZmKah", "reczvaWiepiXA4uNz", "recJotsuz4Hgzgd1v", "rec4hbzyq20cdnvzl", "reccQcnN9PPLePzk3", "recXlvjyZfRS2XzdS", "recw91K2ch3afClAa", "recM64z1Ics4LWMCZ", "recTKyr1BlPlyRm9z", "recOs0meqpaoNU9Pu", "recZsyxyvqspZOj06", "recguhFV1tokvEYJE", "recb2qiso66EkaNkQ", "recGgUlD6n4vvqcYQ", "recegU2m7aDzT2Bv3", "rec2hQl5IP9ggWRsl", "recbVE6AfxhmqWiaW", "recIofmExCahjhnxa", "recCgq4P5FG1yeRJg", "recBeaVBmfy1vZWf1", "recZn0Km9lnUDrmWg", "recavG2MVCtk05pxu", "recw2CEfHmRX8PaEu", "recvuoeky6he1tBos", "recRjlBW4CdRsft7g", "recVjnvExDAGv4SiB", "recAV61Ur3SGLnuWo", "recMHQHDVcm0CpUq6", "recPC5Ac90lVunugA", "reco1uePW5NfandA9", "recg0LO8sSQ1ZLr90", "rec0Bs4mPsRUPTqNM", "recMdHvR7hqRIZtFS", "recvmV6Enx893TPkf", "recfUSDfn4D4rHLpd", "recmQc0412ozOKkvw", "recRuzr8gRT3mGMZp", "recC6AJv6MvnZT5zU", "recVAgdxW6ScqYKDd", "recfgk2vyIgYD4Jqc", "recHic7DMSqeRC8Yw", "recQL7bFWIJON2g5h", "rec41Lm8n6O1mls6c", "rec3LY1ODyb9Z1BEt", "recdlPaAJp5mqoCo7", "rec8AsvgMQfE6qABZ", "recVR6hE1K9ju3Z3y", "recAzmVyKaFhdqy3R", "recZYVSx1dtirkbzt", "recIZM1lMia51k5jB"], "recogitoStatus": "VERIFIED", "recogitoType": "river", "recogitoLabel": "Iordanes (river)", "recogitoUID": "d4b48dc9-d32e-44da-a94f-d1dc92a14c6d", "status": "wip", "displayTitle": "Jordan", "verseCount": 177, "latitude": "33.1864496", "longitude": "35.6191595", "alphaGroup": "J", "slug": "jordan_653"}, "createdTime": "2017-09-19T23:40:41.000Z"}, {"id": "rec5g1fzEKYzCO1Re", "fields": {"placeLookup": "libnah_728", "openBibleLat": "31.56485056116292", "openBibleLong": "34.8467256730566", "kjvName": "Libnah", "esvName": "Libnah", "precision": "Rough", "rootID": ["recH30EhVzvnkXBTl"], "placeID": 728, "verses": ["recg8bz3il7t1YFqw", "receGQxUX9sjOVkfI", "recTC3RqJa8HrLQ4F", "recGfXT2udatBqkyF", "recJcvrD0FN0FxD6d", "recnO3u5ScyjA3jMQ", "recDN2mz6cmxw9cNM", "rec8FgPElMNJEwWXP", "rec4tez7xcdJqySz6", "recyjXRpqFPRWuBcs", "recD6UKQkWm78hXUu", "recZYTQGbNMU8dSCe", "recksbi7L21QIl66h", "recFiee9d2GYfisex", "recQaceX72eoFI0hg"], "recogitoStatus": "NOT_IDENTIFIABLE", "recogitoUID": "a3b71f00-4399-416e-8df9-94b81572ae50", "hasBeenHere": ["recjNRR60PAuFtjha"], "status": "wip", "displayTitle": "Libnah", "ambiguous name": true, "Easton's": ["recf1EvrdoIjncuqX"], "verseCount": 15, "latitude": "31.56485056116292", "longitude": "34.8467256730566", "alphaGroup": "L", "slug": "libnah_728"}, "createdTime": "2017-09-19T23:40:41.000Z"}, {"id": "rec5lsWLp4xB8ECtt", "fields": {"placeLookup": "aram-zobah_85", "openBibleLat": "33.519299", "openBibleLong": "36.31344999999999", "kjvName": "Aram-zobah", "esvName": "Aram-zobah", "precision": "Rough", "rootID": ["recR67sC02MfTx4al"], "placeID": 85, "verses": ["rec2HyFTVq62V1NR5"], "recogitoStatus": "UNVERIFIED", "recogitoUID": "0cc8cbd1-4c2e-4606-8de6-c762d3bc5601", "status": "wip", "displayTitle": "Aram-zobah", "verseCount": 1, "latitude": "33.519299", "longitude": "36.31344999999999", "alphaGroup": "A", "slug": "aram-zobah_85"}, "createdTime": "2017-09-19T23:40:41.000Z"}, {"id": "rec5ngWHMuEkZ9d14", "fields": {"placeLookup": "dalmatia_321", "openBibleLat": "43.515484", "openBibleLong": "16.071538", "kjvName": "Dalmatia", "esvName": "Dalmatia", "comment": "region", "precision": "Related-Surrounding", "featureType": "Region", "placeID": 321, "recogitoUri": "http://pleiades.stoa.org/places/981522", "recogitoLat": "42.5", "recogitoLon": "17.5", "verses": ["recmW5PFjD8Dm70NA"], "recogitoStatus": "UNVERIFIED", "recogitoType": "province", "recogitoLabel": "Dalmatia (province)", "recogitoUID": "2571f2d7-1cb9-492b-ad46-bc12f22fb7f7", "status": "wip", "displayTitle": "Dalmatia", "Easton's": ["recG5cYuI1DhQ85wI"], "verseCount": 1, "latitude": "43.515484", "longitude": "16.071538", "alphaGroup": "D", "slug": "dalmatia_321"}, "createdTime": "2017-09-19T23:40:41.000Z"}, {"id": "rec5wqkJ6JXv03dvF", "fields": {"placeLookup": "mount_of_olives_861", "openBibleLat": "31.77809503", "openBibleLong": "35.24719761", "kjvName": "mount of Olives", "esvName": "Mount of Olives", "aliases": "mount Olivet", "placeID": 861, "verses": ["recB2Jo87xsplmtj9", "recNBHagf3Oqsqobk", "recGmChKDHNypmuA6", "recTX8XSXu1SKyvpj", "recmGvOQ0OYEk0VH2", "recBqfzonTuYL0lEs", "recWS4hyNwF0IFISd", "reczEm8dVo37HUh9J", "rec6uMdGNp6UCMB6J", "recE24HYsIgcCXhc4", "rec0yhfBT9y9TBC75"], "recogitoStatus": "NOT_IDENTIFIABLE", "recogitoComments": "Olivet, not anmed in Pelagios databases|Duplicate of Mount of Olives", "recogitoUID": "fd5c91f6-33fa-4a2b-9800-74d1c470f6f7", "status": "wip", "displayTitle": "mount of Olives", "ambiguous name": true, "verseCount": 11, "latitude": "31.77809503", "longitude": "35.24719761", "alphaGroup": "M", "slug": "mount_of_olives_861"}, "createdTime": "2017-09-19T23:40:41.000Z"}, {"id": "rec5yPfXsUCvFYnJy", "fields": {"placeLookup": "lasharon_719", "openBibleLat": "32.72544", "openBibleLong": "35.467002", "kjvName": "Lasharon", "esvName": "Lasharon", "comment": "now Sharona", "placeID": 719, "verses": ["reccb29ma5IRvvSw8"], "recogitoStatus": "UNVERIFIED", "recogitoUID": "752456d0-4699-4373-9524-97a3bb73dbcb", "status": "wip", "displayTitle": "Lasharon", "verseCount": 1, "latitude": "32.72544", "longitude": "35.467002", "alphaGroup": "L", "slug": "lasharon_719"}, "createdTime": "2017-09-19T23:40:41.000Z"}, {"id": "rec64PJaj56Csp3VI", "fields": {"placeLookup": "mozah_862", "openBibleLat": "31.802641", "openBibleLong": "35.158376", "kjvName": "Mozah", "esvName": "Mozah", "placeID": 862, "verses": ["reck6O7zonwicQqkL"], "recogitoStatus": "UNVERIFIED", "recogitoUID": "99689830-9177-47c0-bff4-a159f0a900af", "status": "wip", "displayTitle": "Mozah", "Easton's": ["recblaO8ZcopHyrTC"], "verseCount": 1, "latitude": "31.802641", "longitude": "35.158376", "alphaGroup": "M", "slug": "mozah_862"}, "createdTime": "2017-09-19T23:40:41.000Z"}, {"id": "rec65si2t9DlsQHGT", "fields": {"placeLookup": "baal-zephon_149", "openBibleLat": "29.938441?", "openBibleLong": "32.395473?", "kjvName": "Baal-zephon", "esvName": "Baal-zephon", "placeID": 149, "verses": ["rec2zmS3sVit2Sp9o", "recZTckDjLdtzn6CG", "rec0FGoGgOivHkl4u"], "recogitoStatus": "UNVERIFIED", "recogitoUID": "2d05de27-ce3f-4321-95ba-896228da6731", "status": "wip", "displayTitle": "Baal-zephon", "verseCount": 3, "latitude": "29.938441?", "longitude": "32.395473?", "alphaGroup": "B", "slug": "baal-zephon_149"}, "createdTime": "2017-09-19T23:40:41.000Z"}, {"id": "rec67PFdQYZru7Px1", "fields": {"placeLookup": "raamah_964", "openBibleLat": "15.68", "openBibleLong": "42.78", "kjvName": "Raamah", "esvName": "Raamah", "precision": "Rough", "placeID": 964, "verses": ["recKX8ktWFqMz1vqs"], "recogitoStatus": "UNVERIFIED", "recogitoUID": "8ecfd53a-0c86-4c12-ab9b-aaa1476b10c8", "status": "wip", "displayTitle": "Raamah", "Easton's": ["recj0ciwNINjArpfb"], "verseCount": 1, "latitude": "15.68", "longitude": "42.78", "alphaGroup": "R", "slug": "raamah_964"}, "createdTime": "2017-09-19T23:40:41.000Z"}, {"id": "rec6CBbPCu4LYuZY9", "fields": {"placeLookup": "aznoth-tabor_131", "openBibleLat": "32.68695640243183", "openBibleLong": "35.39091304299688", "kjvName": "Aznoth-tabor", "esvName": "Aznoth-tabor", "precision": "Rough", "rootID": ["recbTmIWQ3GZPZxdA"], "placeID": 131, "verses": ["recEnQH1bbNS6KwJf"], "recogitoStatus": "UNVERIFIED", "recogitoUID": "71d9d6a2-7ff3-4767-b2f9-117c1051d5cd", "status": "wip", "displayTitle": "Aznoth-tabor", "verseCount": 1, "latitude": "32.68695640243183", "longitude": "35.39091304299688", "alphaGroup": "A", "slug": "aznoth-tabor_131"}, "createdTime": "2017-09-19T23:40:41.000Z"}, {"id": "rec6CMR83y25xqFji", "fields": {"placeLookup": "bethesda_205", "openBibleLat": "31.777444", "openBibleLong": "35.234935", "kjvName": "Bethesda", "esvName": "Bethesda", "precision": "Related-Within", "rootID": ["recL1WV82pXaRBQ59"], "placeID": 205, "recogitoUri": "http://sws.geonames.org/2655804", "recogitoLat": "53.16667", "recogitoLon": "-4.08333", "verses": ["recRhyJvKxtgnor6b"], "recogitoStatus": "UNVERIFIED", "recogitoLabel": "Bethesda", "recogitoUID": "9c04afc5-b078-4f41-80d8-3449385dc92f", "status": "wip", "displayTitle": "Bethesda", "Easton's": ["recxVIuPI1ZOELN8g"], "verseCount": 1, "latitude": "31.777444", "longitude": "35.234935", "alphaGroup": "B", "slug": "bethesda_205"}, "createdTime": "2017-09-19T23:40:41.000Z"}, {"id": "rec6G3mRvN9MpCyjT", "fields": {"placeLookup": "kedesh_676", "openBibleLat": "33.11298357", "openBibleLong": "35.53361334", "kjvName": "Kedesh", "esvName": "Kedesh", "placeID": 676, "recogitoUri": "http://dare.ht.lu.se/places/33327", "recogitoLat": "33.11312", "recogitoLon": "35.52869", "verses": ["recjrCt6uHkVBzVzb", "recDl8ySTWFaWv75r", "rec8K4mEDAwXmvOFF", "recR0hZTlfpn7KMjZ", "recqJEVZ8y5eFGCFB", "recNxv2HfN9SdegS9", "recLDhIEKOjl7HnMj", "recMVinINqReqZ4zb", "reckKZgd3MGwBdiRs"], "recogitoStatus": "VERIFIED", "recogitoType": "settlement", "recogitoLabel": "Kadasa|Kadasa, Tel Qedesh", "recogitoUID": "0ff225b7-5e83-4f4a-81bb-ff855d6e326d", "status": "wip", "displayTitle": "Kedesh", "ambiguous name": true, "verseCount": 9, "latitude": "33.11312", "longitude": "35.52869", "alphaGroup": "K", "slug": "kedesh_676"}, "createdTime": "2017-09-19T23:40:41.000Z"}, {"id": "rec6H5AYVxAT8ixmx", "fields": {"placeLookup": "syrtis_1123", "openBibleLat": "31.766667", "openBibleLong": "18.505556", "kjvName": "Syrtis", "esvName": "Syrtis", "comment": "water; from harper; now Sidra", "featureType": "Water", "placeID": 1123, "recogitoUri": "http://pleiades.stoa.org/places/344491", "recogitoLat": "31.5", "recogitoLon": "18", "verses": ["reclko2EbJ5Yh4Nyw"], "recogitoStatus": "VERIFIED", "recogitoType": "water-open", "recogitoLabel": "Syrtis Maior", "recogitoUID": "8df57fb9-1c00-48ee-93da-a7d0ca0ea838", "eventsHere": ["recHCC9J9wGFgqrvn"], "hasBeenHere": ["recgkzNX07a7kGFYL", "recFAk8M3Dk8tn9Xo", "reclOIbdzOMEvWssM"], "status": "publish", "displayTitle": "Syrtis", "Easton's": ["recN1n2CQYpjiR75k"], "verseCount": 1, "latitude": "31.5", "longitude": "18", "alphaGroup": "S", "slug": "syrtis_1123"}, "createdTime": "2017-09-19T23:40:41.000Z"}, {"id": "rec6JzzIhK5VzoDuJ", "fields": {"placeLookup": "valley_of_jezreel_1211", "openBibleLat": "32.5559631396043", "openBibleLong": "35.33078927843792", "kjvName": "valley of Jezreel", "esvName": "Valley of Jezreel", "precision": "Rough", "rootID": ["reczRCunsz83wZ1Q1"], "placeID": 1211, "verses": ["recTnJp6skm4b8vhK", "recL9Aa10lDfI18Uk", "rec8REHU9GMEloAaG"], "recogitoStatus": "UNVERIFIED", "recogitoUID": "23c80559-7408-458e-923a-ffa6a90883e6", "status": "wip", "displayTitle": "valley of Jezreel", "verseCount": 3, "latitude": "32.5559631396043", "longitude": "35.33078927843792", "alphaGroup": "V", "slug": "valley_of_jezreel_1211"}, "createdTime": "2017-09-19T23:40:41.000Z"}, {"id": "rec6KmA4n3RW8cAsW", "fields": {"placeLookup": "el-paran_376", "openBibleLat": "29.151667", "openBibleLong": "33.541944", "kjvName": "El-paran", "esvName": "El-paran", "precision": "Rough", "rootID": ["recx2Hj4FohnwbJRY"], "placeID": 376, "recogitoUri": "http://sws.geonames.org/3841956", "recogitoLat": "-31.73197", "recogitoLon": "-60.5238", "verses": ["recV1gwyJdyT6O2I8"], "recogitoStatus": "UNVERIFIED", "recogitoLabel": "Paran\u00e1", "recogitoUID": "6b7e3bd0-85a3-4d8c-844f-342bfab1843f", "status": "wip", "displayTitle": "El-paran", "verseCount": 1, "latitude": "29.151667", "longitude": "33.541944", "alphaGroup": "E", "slug": "el-paran_376"}, "createdTime": "2017-09-19T23:40:41.000Z"}, {"id": "rec6L2oZnYNMgEeR6", "fields": {"placeLookup": "hauran_532", "openBibleLat": "32.80007552505443", "openBibleLong": "35.93730130476259", "kjvName": "Hauran", "esvName": "Hauran", "comment": "region", "precision": "Related-Surrounding", "featureType": "Region", "rootID": ["recRpIvrxowDc7mVt"], "placeID": 532, "recogitoUri": "http://pleiades.stoa.org/places/678295", "recogitoLat": "33.023251", "recogitoLon": "36.025648", "verses": ["recHvia6RWxC7MP6Y", "recvmV6Enx893TPkf"], "recogitoStatus": "UNVERIFIED", "recogitoType": "settlement", "recogitoLabel": "Namara|Namara, Nimra (Hauran)", "recogitoUID": "1e87c6d4-1efb-48da-972b-25fba8e4e5b3", "status": "wip", "displayTitle": "Hauran", "Easton's": ["recMphSrLvVHBhufU"], "verseCount": 2, "latitude": "32.80007552505443", "longitude": "35.93730130476259", "alphaGroup": "H", "slug": "hauran_532"}, "createdTime": "2017-09-19T23:40:41.000Z"}, {"id": "rec6NMdB9Jz6HdV8M", "fields": {"placeLookup": "janoah_622", "openBibleLat": "32.155895", "openBibleLong": "35.361606", "kjvName": "Janoah", "esvName": "Janoah 2", "placeID": 622, "verses": ["recMVinINqReqZ4zb"], "recogitoStatus": "UNVERIFIED", "recogitoUID": "7b436dcb-4243-4dc5-ae12-4a3959bac3e0", "status": "wip", "displayTitle": "Janoah", "ambiguous name": true, "Easton's": ["recpv3rds0toV4AVw"], "verseCount": 1, "latitude": "32.155895", "longitude": "35.361606", "alphaGroup": "J", "slug": "janoah_622"}, "createdTime": "2017-09-19T23:40:41.000Z"}, {"id": "rec6SbCLgE1pnIMgt", "fields": {"placeLookup": "luhith_736", "openBibleLat": "31.288056", "openBibleLong": "35.515000", "kjvName": "Luhith", "esvName": "Luhith", "precision": "Rough", "rootID": ["recoMMN7G2f7qaQuj"], "placeID": 736, "recogitoUri": "http://pleiades.stoa.org/places/699902", "verses": ["receXTY4OSmwAYiEa", "recjKGSOVw7kWqOKR"], "recogitoStatus": "UNVERIFIED", "recogitoType": "unlocated", "recogitoLabel": "Luhith", "recogitoUID": "4c52f7a1-8922-4595-ab29-08735d65ddb6", "status": "wip", "displayTitle": "Luhith", "Easton's": ["recUyJY5A06K64WIf"], "verseCount": 2, "latitude": "31.288056", "longitude": "35.515000", "alphaGroup": "L", "slug": "luhith_736"}, "createdTime": "2017-09-19T23:40:41.000Z"}, {"id": "rec6TagODGnHaVOkU", "fields": {"placeLookup": "kenath_682", "openBibleLat": "32.756919", "openBibleLong": "36.6164", "kjvName": "Kenath", "esvName": "Kenath", "placeID": 682, "verses": ["rec9WoyvzyNn1O8Yy", "recrJHJlJAK53GryA"], "recogitoStatus": "UNVERIFIED", "recogitoUID": "3064afff-0a2e-4e74-97c8-85a2388c953b", "status": "wip", "displayTitle": "Kenath", "Easton's": ["recSN0mFQI8NyCFKh"], "verseCount": 2, "latitude": "32.756919", "longitude": "36.6164", "alphaGroup": "K", "slug": "kenath_682"}, "createdTime": "2017-09-19T23:40:41.000Z"}, {"id": "rec6V51IWkgvAcnOU", "fields": {"placeLookup": "sinai_1098", "openBibleLat": "28.539722", "openBibleLong": "33.973333", "kjvName": "Sinai", "esvName": "Sinai", "rootID": ["rec5Yu6987dc60uKz"], "placeID": 1098, "recogitoUri": "http://pleiades.stoa.org/places/746813", "recogitoLat": "29.5", "recogitoLon": "34", "verses": ["recaxiEoi9lFA9N9f", "rectxzIFGot5uwef0", "recNPm2fp1hdBacG4", "recbRWUTFI2kk110Y", "rec1IoqE6NJmJuaaM", "recSrNCKfZxAWpPQ9", "recBdnANWMmiQrU9u", "recs8tWKsLCZY9v9P", "recR26KW9YSN9FE2F", "recmly8tHSFG8OR3k", "recV9RcsPwwsAiMLa", "recO1C4UlgiyAb4Zp", "recfFPk5E2lfI4iN0", "recjPR7UTMeI0PTjn", "recuaEY0LJP3imDqW", "recqSwYRohtXZxW5r", "rec9MCdgdrqK5DY4K"], "recogitoStatus": "VERIFIED", "recogitoType": "peninsula,region", "recogitoComments": "Same as Horeb and Mount Sinai", "recogitoLabel": "Sinai", "recogitoUID": "0c94e8fc-daef-4374-b233-30d8a2c4ec34", "status": "wip", "displayTitle": "Sinai", "duplicate_of": ["rec5Yu6987dc60uKz"], "verseCount": 17, "latitude": "29.5", "longitude": "34", "alphaGroup": "S", "slug": "sinai_1098"}, "createdTime": "2017-09-19T23:40:41.000Z"}, {"id": "rec6VHpWbv15YXzKg", "fields": {"placeLookup": "harmon_528", "openBibleLat": "32.28023100000001", "openBibleLong": "35.19792900000002", "kjvName": "Harmon", "esvName": "Harmon", "precision": "Rough", "rootID": ["recEP3QZ3HUmIkv4Q"], "placeID": 528, "recogitoUri": "http://dare.ht.lu.se/places/26197", "recogitoLat": "52.334326", "recogitoLon": "-3.4909", "verses": ["recOMh0mQqpyTpcrV"], "recogitoStatus": "UNVERIFIED", "recogitoLabel": "Cwm Nant, St. Harmon, Powys", "recogitoUID": "09f24db6-d582-44e5-bcf3-646c0d565b6e", "status": "wip", "displayTitle": "Harmon", "verseCount": 1, "latitude": "32.28023100000001", "longitude": "35.19792900000002", "alphaGroup": "H", "slug": "harmon_528"}, "createdTime": "2017-09-19T23:40:41.000Z"}, {"id": "rec6WgUUBIrAf8HEE", "fields": {"placeLookup": "naphath-dor_875", "openBibleLat": "32.61323618", "openBibleLong": "34.91889683", "kjvName": "Naphath-dor", "esvName": "Naphath-dor", "rootID": ["recvyeVO2Ex1jYF7o"], "placeID": 875, "verses": ["recS283ijsIh6CKgA"], "recogitoStatus": "UNVERIFIED", "recogitoUID": "1aebd253-96f8-4062-8cb9-f953db15a4c4", "status": "wip", "displayTitle": "Naphath-dor", "verseCount": 1, "latitude": "32.61323618", "longitude": "34.91889683", "alphaGroup": "N", "slug": "naphath-dor_875"}, "createdTime": "2017-09-19T23:40:41.000Z"}, {"id": "rec6a1LOQkLPcfRPk", "fields": {"placeLookup": "aphik_75", "openBibleLat": "34.066067", "openBibleLong": "35.865801", "kjvName": "Aphik", "esvName": "Aphik", "rootID": ["recpdFqMr64GytQYz"], "placeID": 75, "verses": ["rec2YwMdvbLZAwYMm"], "recogitoStatus": "UNVERIFIED", "recogitoUID": "59fb7e1e-c395-48f9-99e7-75ec23d41105", "status": "wip", "displayTitle": "Aphik", "verseCount": 1, "latitude": "34.066067", "longitude": "35.865801", "alphaGroup": "A", "slug": "aphik_75"}, "createdTime": "2017-09-19T23:40:41.000Z"}, {"id": "rec6fTlTTEjSOEBsO", "fields": {"placeLookup": "holy_place_575", "openBibleLat": "31.777444", "openBibleLong": "35.234935", "kjvName": "Holy Place", "esvName": "Holy Place", "precision": "Related-Within", "rootID": ["recL1WV82pXaRBQ59"], "placeID": 575, "verses": ["recVJZOkLJKUTLQ4E", "recpQq9ZhZdUUGQj9", "recLn9AJ0VwtRqg0N", "recCJy0NpyTxCJlgQ", "rec9EKAxvATW3yHou", "recWtvheY0Ku26Xky", "rec5fgPqs8WQuR1m6", "reclQ8zbVvOOb10lX", "recDm2eXv0soRZmTX", "recJRUMbyizMJqdAV", "recb5BNDzeNL0lFsB", "recYlwp71scDjlbfO", "rec2yrQBqcZ0YlrfN", "recV95tEinnPp5wRc"], "recogitoStatus": "NOT_IDENTIFIABLE", "recogitoUID": "8083295a-4376-4c2b-9e85-033e92bc9745", "status": "wip", "displayTitle": "Holy Place", "ambiguous name": true, "verseCount": 14, "latitude": "31.777444", "longitude": "35.234935", "alphaGroup": "H", "slug": "holy_place_575"}, "createdTime": "2017-09-19T23:40:41.000Z"}, {"id": "rec6ixBIMia2JX8oX", "fields": {"placeLookup": "elonbeth-hanan_374", "openBibleLat": "31.852593", "openBibleLong": "35.109078", "kjvName": "Elonbeth-hanan", "esvName": "Elonbeth-hanan", "placeID": 374, "verses": ["recQwh1SP8Dqc0IgL"], "recogitoStatus": "UNVERIFIED", "recogitoUID": "12d64f71-e0d5-47c4-a049-6348b0d26ec4", "status": "wip", "displayTitle": "Elonbeth-hanan", "verseCount": 1, "latitude": "31.852593", "longitude": "35.109078", "alphaGroup": "E", "slug": "elonbeth-hanan_374"}, "createdTime": "2017-09-19T23:40:41.000Z"}, {"id": "rec6mT2pj9WJ7X7tP", "fields": {"placeLookup": "kadesh_662", "openBibleLat": "34.558327", "openBibleLong": "36.522943", "kjvName": "Kadesh", "esvName": "Kadesh 2", "placeID": 662, "verses": ["recgG1of5ghzfAVZK"], "recogitoStatus": "UNVERIFIED", "recogitoUID": "df25b1c6-23c3-49b7-bf73-52343dfd98d4", "status": "wip", "displayTitle": "Kadesh", "ambiguous name": true, "verseCount": 1, "latitude": "34.558327", "longitude": "36.522943", "alphaGroup": "K", "slug": "kadesh_662"}, "createdTime": "2017-09-19T23:40:41.000Z"}, {"id": "rec6n0u78dB1QOA1Z", "fields": {"placeLookup": "athens_118", "openBibleLat": "37.98333333", "openBibleLong": "23.73333333", "kjvName": "Athens", "esvName": "Athens", "featureType": "City", "dictionaryLink": "https://www.biblestudytools.com/dictionaries/eastons-bible-dictionary/athens.html", "dictionaryText": " the capital of Attica, the most celebrated city of the ancient world, the seat of Greek literature and art during the golden period of Grecian history. Its inhabitants were fond of novelty ( Acts 17:21  ), and were remarkable for their zeal in the worship of the gods. It was a sarcastic saying of the Roman satirist that it was \"easier to find a god at Athens than a man.\"    On his second missionary journey Paul visited this city ( Acts 17:15  ; Compare  1 Thessalonians 3:1  ), and delivered in the Areopagus his famous speech ( 17:22-31 ). The altar of which Paul there speaks as dedicated \"to the [properly \"an\"] unknown God\" (23) was probably one of several which bore the same inscription. It is supposed that they originated in the practice of letting loose a flock of sheep and goats in the streets of Athens on the occasion of a plague, and of offering them up in sacrifice, at the spot where they lay down, \"to the god concerned.\"", "placeID": 118, "recogitoUri": "http://dare.ht.lu.se/places/10975", "recogitoLat": "37.971687", "recogitoLon": "23.726464", "verses": ["rec8MHerL8mcnNaM0", "recRQcpxaAchz0iP1", "recZdVWXypxaiuhNc", "rece9o2NfC8JCB38P", "rec40XQNCbAcyNAqF"], "recogitoStatus": "VERIFIED", "recogitoType": "settlement", "recogitoLabel": "Athenae|Athenae, Ath\u00edna", "recogitoUID": "7db34513-b88b-4113-af7b-c514ab57d236", "eventsHere": ["recE2xzf2mntEpvGd"], "hasBeenHere": ["recgkzNX07a7kGFYL", "rec1m2Sxz6hjKkkfn", "recUHG987DvnUEI3I"], "status": "publish", "displayTitle": "Athens", "Easton's": ["recoVzBGnOpDBC6ku"], "verseCount": 5, "latitude": "37.971687", "longitude": "23.726464", "alphaGroup": "A", "slug": "athens_118"}, "createdTime": "2017-09-19T23:40:41.000Z"},